[{"property_id":85804.0,"lat":-37.886848,"lng":145.00106,"addr_street":"7 McMillan Street","price":4960000.0,"property_type":"house","year":2016.0,"bedrooms":3.0,"bathrooms":2.0,"parking_space":2.0},{"property_id":11614.0,"lat":-37.78426361,"lng":144.8869629,"addr_street":"8 Prince Street","price":8175000.0,"property_type":"house","year":2009.0,"bedrooms":3.0,"bathrooms":1.0,"parking_space":2.0},{"property_id":65243.0,"lat":-37.803385,"lng":145.304594,"addr_street":"23 Shelley Avenue","price":4050000.0,"property_type":"house","year":2010.0,"bedrooms":4.0,"bathrooms":2.0,"parking_space":2.0},{"property_id":86529.0,"lat":-37.900569,"lng":144.990061,"addr_street":"3 Rothesay Avenue","price":11475000.0,"property_type":"house","year":2016.0,"bedrooms":4.0,"bathrooms":3.0,"parking_space":2.0},{"property_id":68476.0,"lat":-37.856929,"lng":145.025197,"addr_street":"31 Seymour Avenue","price":30360000.0,"property_type":"house","year":2012.0,"bedrooms":3.0,"bathrooms":2.0,"parking_space":2.0},{"property_id":49328.0,"lat":-37.80717468,"lng":145.0858002,"addr_street":"28 Winmalee Road","price":22560000.0,"property_type":"house","year":2008.0,"bedrooms":4.0,"bathrooms":2.0,"parking_space":2.0},{"property_id":39863.0,"lat":-37.699297,"lng":145.073049,"addr_street":"18 Judith Street","price":5621000.0,"property_type":"house","year":2014.0,"bedrooms":3.0,"bathrooms":1.0,"parking_space":2.0},{"property_id":20353.0,"lat":-37.770524,"lng":144.969889,"addr_street":"104 Evans Street","price":18750000.0,"property_type":"house","year":2015.0,"bedrooms":3.0,"bathrooms":2.0,"parking_space":2.0},{"property_id":80008.0,"lat":-37.99478531,"lng":145.1802063,"addr_street":"263 Cheltenham Road","price":4896000.0,"property_type":"house","year":2009.0,"bedrooms":3.0,"bathrooms":1.0,"parking_space":2.0},{"property_id":31713.0,"lat":-37.753151,"lng":145.018728,"addr_street":"11 Adams Street","price":12767000.0,"property_type":"house","year":2016.0,"bedrooms":2.0,"bathrooms":1.0,"parking_space":1.0},{"property_id":10358.0,"lat":-37.787249,"lng":144.925153,"addr_street":"3 Clarence Street","price":5885000.0,"property_type":"house","year":2011.0,"bedrooms":2.0,"bathrooms":1.0,"parking_space":0.0},{"property_id":36584.0,"lat":-37.6644516,"lng":145.0268707,"addr_street":"82 Curtin Avenue","price":2880000.0,"property_type":"house","year":2008.0,"bedrooms":3.0,"bathrooms":1.0,"parking_space":1.0},{"property_id":74264.0,"lat":-37.884131,"lng":145.024759,"addr_street":"17A Snowdon Avenue","price":10240000.0,"property_type":"house","year":2012.0,"bedrooms":3.0,"bathrooms":1.0,"parking_space":1.0},{"property_id":93843.0,"lat":-38.059581,"lng":145.129148,"addr_street":"19 Alleyne Avenue","price":5203000.0,"property_type":"house","year":2015.0,"bedrooms":2.0,"bathrooms":1.0,"parking_space":1.0},{"property_id":96070.0,"lat":-37.90486526,"lng":145.0491943,"addr_street":"611 North Road","price":6051500.0,"property_type":"house","year":2007.0,"bedrooms":3.0,"bathrooms":1.0,"parking_space":2.0},{"property_id":2141.0,"lat":-37.809382,"lng":144.876678,"addr_street":"30 Edgar Street","price":8100000.0,"property_type":"house","year":2010.0,"bedrooms":4.0,"bathrooms":1.0,"parking_space":1.0},{"property_id":8313.0,"lat":-37.753322,"lng":144.749404,"addr_street":"24 Kellys Avenue","price":4895000.0,"property_type":"house","year":2016.0,"bedrooms":3.0,"bathrooms":2.0,"parking_space":2.0},{"property_id":36555.0,"lat":-37.665802,"lng":144.988807,"addr_street":"70 Mosaic Drive","price":6825000.0,"property_type":"house","year":2014.0,"bedrooms":4.0,"bathrooms":2.0,"parking_space":2.0},{"property_id":92807.0,"lat":-38.001126,"lng":145.101079,"addr_street":"17 Affinity Close","price":8701000.0,"property_type":"house","year":2015.0,"bedrooms":4.0,"bathrooms":2.0,"parking_space":2.0},{"property_id":40574.0,"lat":-37.695815,"lng":145.078462,"addr_street":"4 Rhonda Court","price":8840000.0,"property_type":"house","year":2016.0,"bedrooms":3.0,"bathrooms":3.0,"parking_space":2.0},{"property_id":2490.0,"lat":-37.789439,"lng":144.875795,"addr_street":"75 Madden Street","price":5100000.0,"property_type":"house","year":2009.0,"bedrooms":3.0,"bathrooms":2.0,"parking_space":2.0},{"property_id":84388.0,"lat":-37.858864,"lng":145.008301,"addr_street":"8 Lexton Grove","price":14850000.0,"property_type":"house","year":2016.0,"bedrooms":3.0,"bathrooms":2.0,"parking_space":2.0},{"property_id":92895.0,"lat":-37.997269,"lng":145.088461,"addr_street":"2 Cedric Street","price":6480000.0,"property_type":"house","year":2012.0,"bedrooms":3.0,"bathrooms":1.0,"parking_space":2.0},{"property_id":75124.0,"lat":-37.883292,"lng":145.049226,"addr_street":"4 McPherson Avenue","price":16660000.0,"property_type":"house","year":2014.0,"bedrooms":3.0,"bathrooms":2.0,"parking_space":2.0},{"property_id":48189.0,"lat":-37.809404,"lng":145.031871,"addr_street":"26 Wellington Street","price":14100000.0,"property_type":"house","year":2015.0,"bedrooms":3.0,"bathrooms":2.0,"parking_space":2.0},{"property_id":76600.0,"lat":-37.91846085,"lng":145.1430817,"addr_street":"15 Renver Road","price":6330000.0,"property_type":"house","year":2009.0,"bedrooms":1.0,"bathrooms":1.0,"parking_space":0.0},{"property_id":75546.0,"lat":-37.900225,"lng":145.096985,"addr_street":"1 Holland Court","price":11310000.0,"property_type":"house","year":2014.0,"bedrooms":3.0,"bathrooms":1.0,"parking_space":2.0},{"property_id":92640.0,"lat":-38.020409,"lng":145.104822,"addr_street":"12 Connewarra Ave","price":5610000.0,"property_type":"house","year":2013.0,"bedrooms":3.0,"bathrooms":1.0,"parking_space":1.0},{"property_id":63089.0,"lat":-37.831655,"lng":145.238161,"addr_street":"75 Viviani Crescent","price":7620000.0,"property_type":"house","year":2012.0,"bedrooms":3.0,"bathrooms":2.0,"parking_space":3.0},{"property_id":32509.0,"lat":-37.738695,"lng":144.984386,"addr_street":"29 Hope Street","price":6040000.0,"property_type":"house","year":2014.0,"bedrooms":3.0,"bathrooms":2.0,"parking_space":2.0},{"property_id":18014.0,"lat":-37.687147,"lng":144.916208,"addr_street":"1033 Pascoe Vale Road","price":2808000.0,"property_type":"house","year":2012.0,"bedrooms":3.0,"bathrooms":1.0,"parking_space":2.0},{"property_id":25445.0,"lat":-37.606916,"lng":144.926675,"addr_street":"14 Yarcombe Crescent","price":3555000.0,"property_type":"house","year":2014.0,"bedrooms":4.0,"bathrooms":2.0,"parking_space":2.0},{"property_id":12010.0,"lat":-37.70155334,"lng":144.7429657,"addr_street":"1 Sharpe Street","price":1422000.0,"property_type":"house","year":2008.0,"bedrooms":3.0,"bathrooms":1.0,"parking_space":2.0},{"property_id":33613.0,"lat":-37.707364,"lng":145.027412,"addr_street":"11 Mais Street","price":6860000.0,"property_type":"house","year":2014.0,"bedrooms":4.0,"bathrooms":1.0,"parking_space":3.0},{"property_id":56634.0,"lat":-37.844276,"lng":145.118219,"addr_street":"38 Glengarry Avenue","price":14256000.0,"property_type":"house","year":2014.0,"bedrooms":3.0,"bathrooms":1.0,"parking_space":2.0},{"property_id":75858.0,"lat":-37.901351,"lng":145.075848,"addr_street":"192 Poath Road","price":8580000.0,"property_type":"house","year":2013.0,"bedrooms":3.0,"bathrooms":2.0,"parking_space":2.0},{"property_id":63529.0,"lat":-37.798422,"lng":145.26622,"addr_street":"14 Clegg Avenue","price":4136000.0,"property_type":"house","year":2013.0,"bedrooms":2.0,"bathrooms":1.0,"parking_space":1.0},{"property_id":9533.0,"lat":-37.855281,"lng":144.7234041,"addr_street":"4 Wilma crt","price":7840000.0,"property_type":"house","year":2014.0,"bedrooms":4.0,"bathrooms":2.0,"parking_space":2.0},{"property_id":52738.0,"lat":-37.82284,"lng":145.00344,"addr_street":"22 Wall street","price":18080000.0,"property_type":"house","year":2015.0,"bedrooms":3.0,"bathrooms":2.0,"parking_space":2.0},{"property_id":77339.0,"lat":-37.922384,"lng":145.186437,"addr_street":"1 Sir Kenneth Luke Boulevard","price":7330000.0,"property_type":"house","year":2014.0,"bedrooms":4.0,"bathrooms":3.0,"parking_space":2.0},{"property_id":2752.0,"lat":-37.810949,"lng":144.888458,"addr_street":"12 Fielding Street","price":6856000.0,"property_type":"house","year":2012.0,"bedrooms":3.0,"bathrooms":1.0,"parking_space":0.0},{"property_id":16358.0,"lat":-37.710166,"lng":144.926257,"addr_street":"11 Wheatsheaf Road","price":8190000.0,"property_type":"house","year":2015.0,"bedrooms":3.0,"bathrooms":1.0,"parking_space":1.0},{"property_id":36340.0,"lat":-37.67168045,"lng":145.0398865,"addr_street":"26 Winston Street","price":3280000.0,"property_type":"house","year":2008.0,"bedrooms":4.0,"bathrooms":2.0,"parking_space":2.0},{"property_id":51982.0,"lat":-37.800676,"lng":145.170933,"addr_street":"7 Aranga Crescent","price":13090000.0,"property_type":"house","year":2015.0,"bedrooms":4.0,"bathrooms":2.0,"parking_space":2.0},{"property_id":76.0,"lat":-37.829295,"lng":144.968233,"addr_street":"70 Coventry Street","price":9200000.0,"property_type":"house","year":2015.0,"bedrooms":3.0,"bathrooms":2.0,"parking_space":1.0},{"property_id":84952.0,"lat":-37.87644196,"lng":144.9824371,"addr_street":"41 Ruskin Street","price":14170000.0,"property_type":"house","year":2008.0,"bedrooms":3.0,"bathrooms":1.0,"parking_space":2.0},{"property_id":42902.0,"lat":-37.721764,"lng":145.077731,"addr_street":"17 Fairlie Avenue","price":7400000.0,"property_type":"house","year":2016.0,"bedrooms":3.0,"bathrooms":1.0,"parking_space":2.0},{"property_id":65471.0,"lat":-37.805027,"lng":145.31825,"addr_street":"6-8 Glendale Court","price":9700000.0,"property_type":"house","year":2014.0,"bedrooms":4.0,"bathrooms":2.0,"parking_space":2.0},{"property_id":83755.0,"lat":-37.857192,"lng":145.004264,"addr_street":"25 Closeburn Avenue","price":26860000.0,"property_type":"house","year":2012.0,"bedrooms":3.0,"bathrooms":2.0,"parking_space":2.0},{"property_id":15483.0,"lat":-37.740334,"lng":144.910894,"addr_street":"8 Carnarvon Road","price":22050000.0,"property_type":"house","year":2015.0,"bedrooms":4.0,"bathrooms":3.0,"parking_space":2.0},{"property_id":9903.0,"lat":-37.793161,"lng":144.925605,"addr_street":"10 Bangalore Street","price":9396000.0,"property_type":"house","year":2011.0,"bedrooms":2.0,"bathrooms":1.0,"parking_space":0.0},{"property_id":70083.0,"lat":-37.869079,"lng":145.087674,"addr_street":"42 Gloucester Road","price":13910000.0,"property_type":"house","year":2012.0,"bedrooms":3.0,"bathrooms":2.0,"parking_space":2.0},{"property_id":56273.0,"lat":-37.856826,"lng":145.110038,"addr_street":"17 Keogh Street","price":11280000.0,"property_type":"house","year":2014.0,"bedrooms":4.0,"bathrooms":2.0,"parking_space":2.0},{"property_id":17877.0,"lat":-37.70434,"lng":144.940383,"addr_street":"94 A North Street","price":4320000.0,"property_type":"house","year":2012.0,"bedrooms":2.0,"bathrooms":1.0,"parking_space":1.0},{"property_id":62384.0,"lat":-37.805408,"lng":145.228918,"addr_street":"9 Loughnan Road","price":1760000.0,"property_type":"house","year":2011.0,"bedrooms":3.0,"bathrooms":1.0,"parking_space":1.0},{"property_id":95895.0,"lat":-37.918986,"lng":145.049342,"addr_street":"5 Lydia Street","price":19370000.0,"property_type":"house","year":2016.0,"bedrooms":3.0,"bathrooms":2.0,"parking_space":1.0},{"property_id":41968.0,"lat":-37.748295,"lng":145.08126,"addr_street":"27 Berkeley Avenue","price":15000000.0,"property_type":"house","year":2013.0,"bedrooms":4.0,"bathrooms":2.0,"parking_space":0.0},{"property_id":20873.0,"lat":-37.772513,"lng":144.963577,"addr_street":"25 Charles Street","price":5608000.0,"property_type":"house","year":2011.0,"bedrooms":3.0,"bathrooms":1.0,"parking_space":1.0},{"property_id":66497.0,"lat":-37.765516,"lng":145.326509,"addr_street":"51 Churchill Drive","price":9088000.0,"property_type":"house","year":2015.0,"bedrooms":3.0,"bathrooms":2.0,"parking_space":2.0},{"property_id":50084.0,"lat":-37.77476883,"lng":145.099884,"addr_street":"26 Harold Street","price":10665000.0,"property_type":"house","year":2009.0,"bedrooms":4.0,"bathrooms":2.0,"parking_space":2.0},{"property_id":20159.0,"lat":-37.799664,"lng":144.970415,"addr_street":"36 Rathdowne Street","price":12402000.0,"property_type":"house","year":2014.0,"bedrooms":3.0,"bathrooms":1.0,"parking_space":0.0},{"property_id":7431.0,"lat":-37.732786,"lng":144.819465,"addr_street":"33 Georgia Place","price":2970000.0,"property_type":"house","year":2011.0,"bedrooms":2.0,"bathrooms":2.0,"parking_space":1.0},{"property_id":76729.0,"lat":-37.919332,"lng":145.142913,"addr_street":"27A Renver Road","price":5511000.0,"property_type":"house","year":2010.0,"bedrooms":3.0,"bathrooms":1.0,"parking_space":1.0},{"property_id":59801.0,"lat":-37.81883,"lng":145.206987,"addr_street":"3 Talbot Street","price":5600000.0,"property_type":"house","year":2013.0,"bedrooms":5.0,"bathrooms":2.0,"parking_space":2.0},{"property_id":59161.0,"lat":-37.816395,"lng":145.170478,"addr_street":"9 Russell Street","price":8120000.0,"property_type":"house","year":2015.0,"bedrooms":3.0,"bathrooms":1.0,"parking_space":2.0},{"property_id":92391.0,"lat":-37.98809,"lng":145.059025,"addr_street":"65 Beach Road","price":19580000.0,"property_type":"house","year":2015.0,"bedrooms":3.0,"bathrooms":1.0,"parking_space":3.0},{"property_id":1926.0,"lat":-37.789152,"lng":144.869481,"addr_street":"19 Yardley Street","price":5877000.0,"property_type":"house","year":2012.0,"bedrooms":3.0,"bathrooms":1.0,"parking_space":1.0},{"property_id":80495.0,"lat":-37.999152,"lng":145.150637,"addr_street":"8  Yale Avenue","price":13260000.0,"property_type":"house","year":2011.0,"bedrooms":5.0,"bathrooms":3.0,"parking_space":2.0},{"property_id":31233.0,"lat":-37.75523376,"lng":145.0042114,"addr_street":"40 Collins Street","price":4368000.0,"property_type":"house","year":2008.0,"bedrooms":3.0,"bathrooms":1.0,"parking_space":1.0},{"property_id":94513.0,"lat":-37.906391,"lng":145.040111,"addr_street":"1\/21 Wheeler Street","price":7150000.0,"property_type":"house","year":2014.0,"bedrooms":2.0,"bathrooms":1.0,"parking_space":1.0},{"property_id":55751.0,"lat":-37.839201,"lng":145.068237,"addr_street":"5 Lyric Grove","price":22900000.0,"property_type":"house","year":2015.0,"bedrooms":3.0,"bathrooms":2.0,"parking_space":1.0},{"property_id":81830.0,"lat":-37.991013,"lng":145.247152,"addr_street":"16 Laurel Avenue","price":3468000.0,"property_type":"house","year":2014.0,"bedrooms":2.0,"bathrooms":1.0,"parking_space":1.0},{"property_id":65489.0,"lat":-37.809126,"lng":145.316283,"addr_street":"73 Geoffrey Drive (Front House)","price":9840000.0,"property_type":"house","year":2014.0,"bedrooms":3.0,"bathrooms":1.0,"parking_space":1.0},{"property_id":39795.0,"lat":-37.710449,"lng":145.05629,"addr_street":"16 Springwood View","price":13600000.0,"property_type":"house","year":2015.0,"bedrooms":4.0,"bathrooms":3.0,"parking_space":2.0},{"property_id":19623.0,"lat":-37.670286,"lng":144.89171,"addr_street":"2 Corrigan Place","price":6030000.0,"property_type":"house","year":2016.0,"bedrooms":5.0,"bathrooms":2.0,"parking_space":2.0},{"property_id":24055.0,"lat":-37.702779,"lng":144.976728,"addr_street":"163 McBryde Street","price":5544000.0,"property_type":"house","year":2016.0,"bedrooms":3.0,"bathrooms":1.0,"parking_space":2.0},{"property_id":50865.0,"lat":-37.78942871,"lng":145.1302185,"addr_street":"16 Gifford Road","price":9480000.0,"property_type":"house","year":2009.0,"bedrooms":3.0,"bathrooms":1.0,"parking_space":1.0},{"property_id":36166.0,"lat":-37.667601,"lng":145.033773,"addr_street":"13 Tunbridge Crescent","price":5250000.0,"property_type":"house","year":2011.0,"bedrooms":3.0,"bathrooms":1.0,"parking_space":3.0},{"property_id":71278.0,"lat":-37.855553,"lng":145.222031,"addr_street":"20 Croxteth Way","price":8560000.0,"property_type":"house","year":2016.0,"bedrooms":4.0,"bathrooms":2.0,"parking_space":2.0},{"property_id":357.0,"lat":-37.8000145,"lng":144.8910675,"addr_street":"141 Geelong Road","price":3609000.0,"property_type":"house","year":2008.0,"bedrooms":3.0,"bathrooms":1.0,"parking_space":0.0},{"property_id":28878.0,"lat":-37.802501,"lng":144.997507,"addr_street":"192 Nicholson Street","price":13050000.0,"property_type":"house","year":2013.0,"bedrooms":3.0,"bathrooms":1.0,"parking_space":0.0},{"property_id":95901.0,"lat":-37.915712,"lng":145.049017,"addr_street":"5 Osborne Avenue","price":11660000.0,"property_type":"house","year":2010.0,"bedrooms":3.0,"bathrooms":1.0,"parking_space":2.0},{"property_id":11168.0,"lat":-37.784499,"lng":144.884635,"addr_street":"16 Valnere Street","price":7440000.0,"property_type":"house","year":2015.0,"bedrooms":3.0,"bathrooms":1.0,"parking_space":1.0},{"property_id":55708.0,"lat":-37.825554,"lng":145.062189,"addr_street":"46 Broadway","price":28320000.0,"property_type":"house","year":2016.0,"bedrooms":3.0,"bathrooms":3.0,"parking_space":1.0},{"property_id":79053.0,"lat":-37.937739,"lng":145.153993,"addr_street":"4 Loller Street","price":3080000.0,"property_type":"house","year":2013.0,"bedrooms":3.0,"bathrooms":1.0,"parking_space":1.0},{"property_id":31221.0,"lat":-37.756861,"lng":144.996927,"addr_street":"39a Harold Street","price":8960000.0,"property_type":"house","year":2010.0,"bedrooms":2.0,"bathrooms":2.0,"parking_space":2.0},{"property_id":81853.0,"lat":-37.986804,"lng":145.233795,"addr_street":"174 Kidds Road","price":4396000.0,"property_type":"house","year":2011.0,"bedrooms":3.0,"bathrooms":1.0,"parking_space":1.0},{"property_id":78856.0,"lat":-37.94715,"lng":145.158875,"addr_street":"24  Flynn St","price":7380000.0,"property_type":"house","year":2013.0,"bedrooms":3.0,"bathrooms":1.0,"parking_space":1.0},{"property_id":61499.0,"lat":-37.801029,"lng":145.240352,"addr_street":"2 Sonia Street","price":14752000.0,"property_type":"house","year":2015.0,"bedrooms":3.0,"bathrooms":2.0,"parking_space":2.0},{"property_id":76597.0,"lat":-37.918147,"lng":145.123166,"addr_street":"15 Murray Street","price":2664000.0,"property_type":"house","year":2011.0,"bedrooms":5.0,"bathrooms":2.0,"parking_space":2.0},{"property_id":84937.0,"lat":-37.876976,"lng":144.986758,"addr_street":"4 Lindsay Avenue","price":23700000.0,"property_type":"house","year":2009.0,"bedrooms":3.0,"bathrooms":1.0,"parking_space":1.0},{"property_id":35919.0,"lat":-37.67884445,"lng":145.0404053,"addr_street":"2 Lisa Court","price":3835000.0,"property_type":"house","year":2008.0,"bedrooms":4.0,"bathrooms":1.0,"parking_space":0.0},{"property_id":5013.0,"lat":-37.87127,"lng":144.822296,"addr_street":"2\/237 Esplanade","price":5830000.0,"property_type":"house","year":2014.0,"bedrooms":2.0,"bathrooms":1.0,"parking_space":2.0},{"property_id":75920.0,"lat":-37.903089,"lng":145.104719,"addr_street":"209 Huntingdale Rd","price":6817000.0,"property_type":"house","year":2009.0,"bedrooms":3.0,"bathrooms":1.0,"parking_space":2.0},{"property_id":9900.0,"lat":-37.782856,"lng":144.931441,"addr_street":"1\/92 Farnham Street","price":5850000.0,"property_type":"house","year":2016.0,"bedrooms":3.0,"bathrooms":1.0,"parking_space":1.0},{"property_id":34917.0,"lat":-37.726179,"lng":145.000345,"addr_street":"40 Powell Street","price":9984000.0,"property_type":"house","year":2016.0,"bedrooms":3.0,"bathrooms":1.0,"parking_space":2.0},{"property_id":31342.0,"lat":-37.75635,"lng":144.984264,"addr_street":"56 Newman Street","price":7579000.0,"property_type":"house","year":2013.0,"bedrooms":2.0,"bathrooms":1.0,"parking_space":3.0},{"property_id":93832.0,"lat":-38.059579,"lng":145.127636,"addr_street":"15 Crown Road","price":6175000.0,"property_type":"house","year":2011.0,"bedrooms":2.0,"bathrooms":1.0,"parking_space":3.0},{"property_id":4472.0,"lat":-37.846624,"lng":144.869323,"addr_street":"43 Severn Street","price":8364000.0,"property_type":"house","year":2015.0,"bedrooms":3.0,"bathrooms":2.0,"parking_space":2.0},{"property_id":72634.0,"lat":-37.836764,"lng":145.285808,"addr_street":"9 Streeton Road","price":6876000.0,"property_type":"house","year":2015.0,"bedrooms":3.0,"bathrooms":1.0,"parking_space":1.0},{"property_id":90088.0,"lat":-37.95554531,"lng":145.0682336,"addr_street":"16 Mulberry Avenue","price":7150000.0,"property_type":"house","year":2015.0,"bedrooms":3.0,"bathrooms":2.0,"parking_space":2.0},{"property_id":66366.0,"lat":-37.77628,"lng":145.338282,"addr_street":"4 Summerhill Park Drive","price":8800000.0,"property_type":"house","year":2011.0,"bedrooms":4.0,"bathrooms":2.0,"parking_space":2.0},{"property_id":18019.0,"lat":-37.686483,"lng":144.916422,"addr_street":"1043 Pascoe Vale Road","price":4995000.0,"property_type":"house","year":2014.0,"bedrooms":3.0,"bathrooms":1.0,"parking_space":1.0},{"property_id":42863.0,"lat":-37.71921158,"lng":145.0585175,"addr_street":"15 Heritage Court","price":9520000.0,"property_type":"house","year":2008.0,"bedrooms":4.0,"bathrooms":3.0,"parking_space":2.0},{"property_id":39483.0,"lat":-37.679808,"lng":145.051952,"addr_street":"11 Pride Avenue","price":8030000.0,"property_type":"house","year":2010.0,"bedrooms":4.0,"bathrooms":3.0,"parking_space":2.0},{"property_id":50113.0,"lat":-37.765061,"lng":145.085558,"addr_street":"29 Austin Street","price":7095000.0,"property_type":"house","year":2011.0,"bedrooms":3.0,"bathrooms":1.0,"parking_space":3.0},{"property_id":40819.0,"lat":-37.701093,"lng":145.067379,"addr_street":"509 Grimshaw Street","price":4500000.0,"property_type":"house","year":2014.0,"bedrooms":3.0,"bathrooms":1.0,"parking_space":1.0},{"property_id":85360.0,"lat":-37.894362,"lng":145.009523,"addr_street":"2\/35 Bertram Street","price":8019000.0,"property_type":"house","year":2011.0,"bedrooms":3.0,"bathrooms":2.0,"parking_space":2.0},{"property_id":494.0,"lat":-37.7977263,"lng":144.896197,"addr_street":"19 Fitzroy Street","price":5530000.0,"property_type":"house","year":2011.0,"bedrooms":2.0,"bathrooms":1.0,"parking_space":1.0},{"property_id":52333.0,"lat":-37.819485,"lng":145.000396,"addr_street":"14 Lyndhurst Street","price":7605000.0,"property_type":"house","year":2011.0,"bedrooms":2.0,"bathrooms":1.0,"parking_space":1.0},{"property_id":67634.0,"lat":-37.768064,"lng":145.350048,"addr_street":"64 Rockys Way","price":8890000.0,"property_type":"house","year":2015.0,"bedrooms":5.0,"bathrooms":3.0,"parking_space":2.0},{"property_id":42888.0,"lat":-37.727007,"lng":145.095632,"addr_street":"16 Silver Wattle Street","price":4158000.0,"property_type":"house","year":2011.0,"bedrooms":3.0,"bathrooms":2.0,"parking_space":1.0},{"property_id":73314.0,"lat":-37.86352,"lng":145.263507,"addr_street":"23 Gertonia Avenue","price":3496000.0,"property_type":"house","year":2013.0,"bedrooms":3.0,"bathrooms":1.0,"parking_space":2.0},{"property_id":83669.0,"lat":-37.856082,"lng":145.00899,"addr_street":"20 Kelvin Grove","price":19630000.0,"property_type":"house","year":2012.0,"bedrooms":3.0,"bathrooms":1.0,"parking_space":1.0},{"property_id":64971.0,"lat":-37.78843,"lng":145.284058,"addr_street":"9 Norman Road","price":5335000.0,"property_type":"house","year":2012.0,"bedrooms":3.0,"bathrooms":1.0,"parking_space":0.0},{"property_id":71122.0,"lat":-37.863067,"lng":145.220555,"addr_street":"13a Benwerrin Drive","price":17500000.0,"property_type":"house","year":2016.0,"bedrooms":3.0,"bathrooms":1.0,"parking_space":1.0},{"property_id":6071.0,"lat":-37.793097,"lng":144.832624,"addr_street":"111 Morris Street","price":9750000.0,"property_type":"house","year":2016.0,"bedrooms":4.0,"bathrooms":2.0,"parking_space":2.0},{"property_id":49805.0,"lat":-37.766807,"lng":145.080187,"addr_street":"1 Ilma Court","price":23630000.0,"property_type":"house","year":2015.0,"bedrooms":4.0,"bathrooms":3.0,"parking_space":3.0},{"property_id":85369.0,"lat":-37.8848629,"lng":144.9994425,"addr_street":"20 Ross Street","price":8260000.0,"property_type":"house","year":2013.0,"bedrooms":2.0,"bathrooms":1.0,"parking_space":1.0},{"property_id":19686.0,"lat":-37.673008,"lng":144.893065,"addr_street":"3 Lockhart Avenue","price":6710000.0,"property_type":"house","year":2010.0,"bedrooms":4.0,"bathrooms":2.0,"parking_space":2.0},{"property_id":67483.0,"lat":-37.773838,"lng":145.354846,"addr_street":"45 Lakeview Drive","price":7200000.0,"property_type":"house","year":2013.0,"bedrooms":3.0,"bathrooms":2.0,"parking_space":2.0},{"property_id":15994.0,"lat":-37.7034,"lng":144.882486,"addr_street":"2\/169 Melrose Drive","price":6000000.0,"property_type":"house","year":2010.0,"bedrooms":3.0,"bathrooms":2.0,"parking_space":1.0},{"property_id":7244.0,"lat":-37.72933,"lng":144.821718,"addr_street":"16 Driscolls Road","price":4149000.0,"property_type":"house","year":2016.0,"bedrooms":3.0,"bathrooms":1.0,"parking_space":0.0},{"property_id":41839.0,"lat":-37.74189377,"lng":145.0733032,"addr_street":"200 Rosanna Road","price":5005000.0,"property_type":"house","year":2008.0,"bedrooms":3.0,"bathrooms":1.0,"parking_space":1.0},{"property_id":57945.0,"lat":-37.81233597,"lng":145.1405182,"addr_street":"2A Dixon Grove","price":3610000.0,"property_type":"house","year":2008.0,"bedrooms":2.0,"bathrooms":1.0,"parking_space":1.0},{"property_id":23165.0,"lat":-37.7498,"lng":144.969902,"addr_street":"7A Coburg Street","price":8340000.0,"property_type":"house","year":2014.0,"bedrooms":3.0,"bathrooms":2.0,"parking_space":1.0},{"property_id":25062.0,"lat":-37.595782,"lng":144.9279,"addr_street":"101 Dianne Avenue","price":4480000.0,"property_type":"house","year":2014.0,"bedrooms":3.0,"bathrooms":2.0,"parking_space":2.0},{"property_id":21906.0,"lat":-37.754961,"lng":144.977725,"addr_street":"125 Moore Street","price":4312000.0,"property_type":"house","year":2013.0,"bedrooms":2.0,"bathrooms":1.0,"parking_space":1.0},{"property_id":92441.0,"lat":-37.979652,"lng":145.085556,"addr_street":"8 Daniel Court","price":6611000.0,"property_type":"house","year":2014.0,"bedrooms":4.0,"bathrooms":2.0,"parking_space":0.0},{"property_id":24933.0,"lat":-37.609407,"lng":144.930271,"addr_street":"1\/156 Hothlyn Drive","price":3120000.0,"property_type":"house","year":2014.0,"bedrooms":3.0,"bathrooms":1.0,"parking_space":1.0},{"property_id":18251.0,"lat":-37.665693,"lng":144.929289,"addr_street":"15 Tooradin Avenue","price":4260000.0,"property_type":"house","year":2016.0,"bedrooms":3.0,"bathrooms":1.0,"parking_space":2.0},{"property_id":40326.0,"lat":-37.700705,"lng":145.05225,"addr_street":"3 Shoalhaven Street","price":13120000.0,"property_type":"house","year":2014.0,"bedrooms":4.0,"bathrooms":2.0,"parking_space":2.0},{"property_id":62081.0,"lat":-37.791826,"lng":145.254569,"addr_street":"51 Highland Boulevard","price":11760000.0,"property_type":"house","year":2015.0,"bedrooms":4.0,"bathrooms":2.0,"parking_space":3.0},{"property_id":59552.0,"lat":-37.809267,"lng":145.197724,"addr_street":"2 Dalmor Avenue","price":6765000.0,"property_type":"house","year":2010.0,"bedrooms":3.0,"bathrooms":2.0,"parking_space":2.0},{"property_id":35395.0,"lat":-37.708455,"lng":145.012823,"addr_street":"65 Cheddar Road","price":8974000.0,"property_type":"house","year":2015.0,"bedrooms":2.0,"bathrooms":1.0,"parking_space":2.0},{"property_id":37833.0,"lat":-37.64065,"lng":145.049039,"addr_street":"9 Dean Court","price":4100000.0,"property_type":"house","year":2016.0,"bedrooms":4.0,"bathrooms":2.0,"parking_space":1.0},{"property_id":65666.0,"lat":-37.761807,"lng":145.320745,"addr_street":"11 Glendower Court","price":9632000.0,"property_type":"house","year":2015.0,"bedrooms":4.0,"bathrooms":2.0,"parking_space":3.0},{"property_id":55764.0,"lat":-37.842307,"lng":145.062437,"addr_street":"50 Bowen Street","price":21710000.0,"property_type":"house","year":2012.0,"bedrooms":4.0,"bathrooms":3.0,"parking_space":2.0},{"property_id":40456.0,"lat":-37.695665,"lng":145.074058,"addr_street":"36 Jacqueline Road","price":5880000.0,"property_type":"house","year":2010.0,"bedrooms":3.0,"bathrooms":1.0,"parking_space":3.0},{"property_id":66152.0,"lat":-37.792369,"lng":145.322801,"addr_street":"28a Swinburne Avenue","price":4194000.0,"property_type":"house","year":2014.0,"bedrooms":3.0,"bathrooms":2.0,"parking_space":2.0},{"property_id":1744.0,"lat":-37.811105,"lng":144.880999,"addr_street":"128 Empress Avenue","price":13792000.0,"property_type":"house","year":2015.0,"bedrooms":3.0,"bathrooms":1.0,"parking_space":1.0},{"property_id":52900.0,"lat":-37.82409286,"lng":145.0067749,"addr_street":"29 Canterbury Street","price":8853000.0,"property_type":"house","year":2009.0,"bedrooms":2.0,"bathrooms":1.0,"parking_space":0.0},{"property_id":31556.0,"lat":-37.760548,"lng":144.99022,"addr_street":"95 Woolton Avenue","price":8360000.0,"property_type":"house","year":2014.0,"bedrooms":4.0,"bathrooms":2.0,"parking_space":2.0},{"property_id":8450.0,"lat":-37.75030899,"lng":144.7830505,"addr_street":"36 Homebush Road","price":6240000.0,"property_type":"house","year":2008.0,"bedrooms":3.0,"bathrooms":2.0,"parking_space":2.0},{"property_id":66273.0,"lat":-37.792222,"lng":145.31288,"addr_street":"35 Highland Crescent","price":6010000.0,"property_type":"house","year":2015.0,"bedrooms":3.0,"bathrooms":2.0,"parking_space":2.0},{"property_id":1290.0,"lat":-37.797482,"lng":144.882317,"addr_street":"63 Liverpool Street","price":8025000.0,"property_type":"house","year":2014.0,"bedrooms":3.0,"bathrooms":1.0,"parking_space":0.0},{"property_id":17712.0,"lat":-37.696031,"lng":144.911333,"addr_street":"79 Pecham Street","price":3872000.0,"property_type":"house","year":2012.0,"bedrooms":3.0,"bathrooms":1.0,"parking_space":1.0},{"property_id":51369.0,"lat":-37.77643,"lng":145.116323,"addr_street":"4 Howard Court","price":9361000.0,"property_type":"house","year":2010.0,"bedrooms":4.0,"bathrooms":2.0,"parking_space":3.0},{"property_id":93957.0,"lat":-38.071709,"lng":145.122175,"addr_street":"478 Station Street","price":6960000.0,"property_type":"house","year":2012.0,"bedrooms":2.0,"bathrooms":1.0,"parking_space":1.0},{"property_id":95404.0,"lat":-37.908785,"lng":145.04302,"addr_street":"287 Jasper Road","price":8140000.0,"property_type":"house","year":2012.0,"bedrooms":3.0,"bathrooms":1.0,"parking_space":1.0},{"property_id":73715.0,"lat":-37.863212,"lng":145.261876,"addr_street":"43 Rathmullen Road","price":8075000.0,"property_type":"house","year":2013.0,"bedrooms":3.0,"bathrooms":1.0,"parking_space":2.0},{"property_id":77056.0,"lat":-37.943284,"lng":145.101406,"addr_street":"10 Benjamin Court","price":4464000.0,"property_type":"house","year":2016.0,"bedrooms":5.0,"bathrooms":2.0,"parking_space":2.0},{"property_id":67241.0,"lat":-37.751141,"lng":145.337168,"addr_street":"23 Blair Street","price":13175000.0,"property_type":"house","year":2015.0,"bedrooms":3.0,"bathrooms":2.0,"parking_space":2.0},{"property_id":59807.0,"lat":-37.819022,"lng":145.19762,"addr_street":"3\/11 McGhee Avenue","price":9520000.0,"property_type":"house","year":2013.0,"bedrooms":3.0,"bathrooms":2.0,"parking_space":2.0},{"property_id":30822.0,"lat":-37.758071,"lng":145.011526,"addr_street":"165 Rossmoyne Street","price":6480000.0,"property_type":"house","year":2014.0,"bedrooms":3.0,"bathrooms":1.0,"parking_space":3.0},{"property_id":26319.0,"lat":-37.580628,"lng":144.907517,"addr_street":"3 Cordyline Grove","price":5978000.0,"property_type":"house","year":2016.0,"bedrooms":4.0,"bathrooms":2.0,"parking_space":2.0},{"property_id":55376.0,"lat":-37.83670044,"lng":145.0960999,"addr_street":"25 Webster Street","price":16150000.0,"property_type":"house","year":2009.0,"bedrooms":3.0,"bathrooms":1.0,"parking_space":1.0},{"property_id":56327.0,"lat":-37.855788,"lng":145.1203491,"addr_street":"2 Ian Grove","price":7710000.0,"property_type":"house","year":2013.0,"bedrooms":4.0,"bathrooms":2.0,"parking_space":2.0},{"property_id":95592.0,"lat":-37.90065,"lng":145.039204,"addr_street":"34 Newham Grove","price":15827000.0,"property_type":"house","year":2013.0,"bedrooms":3.0,"bathrooms":2.0,"parking_space":2.0},{"property_id":53988.0,"lat":-37.816858,"lng":145.04578,"addr_street":"10 Auburn Road","price":28560000.0,"property_type":"house","year":2016.0,"bedrooms":3.0,"bathrooms":1.0,"parking_space":2.0},{"property_id":65074.0,"lat":-37.798033,"lng":145.307551,"addr_street":"1\/9 Kalina Court","price":4620000.0,"property_type":"house","year":2012.0,"bedrooms":5.0,"bathrooms":2.0,"parking_space":1.0},{"property_id":87069.0,"lat":-37.91209,"lng":145.006955,"addr_street":"73 Durrant Street","price":10790000.0,"property_type":"house","year":2012.0,"bedrooms":3.0,"bathrooms":2.0,"parking_space":1.0},{"property_id":58156.0,"lat":-37.81154,"lng":145.140373,"addr_street":"484 Middleborough Road","price":4450000.0,"property_type":"house","year":2011.0,"bedrooms":2.0,"bathrooms":1.0,"parking_space":1.0},{"property_id":58877.0,"lat":-37.812588,"lng":145.17374,"addr_street":"307 Springfield Road","price":6435000.0,"property_type":"house","year":2013.0,"bedrooms":2.0,"bathrooms":1.0,"parking_space":1.0},{"property_id":80022.0,"lat":-37.98946,"lng":145.185953,"addr_street":"27 Parkmore Road","price":4332000.0,"property_type":"house","year":2012.0,"bedrooms":3.0,"bathrooms":1.0,"parking_space":2.0},{"property_id":89391.0,"lat":-37.951535,"lng":145.006147,"addr_street":"25 Trentham Street","price":6006000.0,"property_type":"house","year":2016.0,"bedrooms":1.0,"bathrooms":1.0,"parking_space":0.0},{"property_id":94181.0,"lat":-38.073857,"lng":145.13263,"addr_street":"3 Anita Court","price":6720000.0,"property_type":"house","year":2014.0,"bedrooms":3.0,"bathrooms":1.0,"parking_space":2.0},{"property_id":12840.0,"lat":-37.711639,"lng":144.774489,"addr_street":"29 Blackwood Way","price":3900000.0,"property_type":"house","year":2014.0,"bedrooms":4.0,"bathrooms":2.0,"parking_space":1.0},{"property_id":null,"lat":null,"lng":null,"addr_street":null,"price":null,"property_type":null,"year":null,"bedrooms":null,"bathrooms":null,"parking_space":null},{"property_id":78859.0,"lat":-37.968721,"lng":145.15586,"addr_street":"24 Ludwig Street","price":14576000.0,"property_type":"house","year":2007.0,"bedrooms":3.0,"bathrooms":1.0,"parking_space":1.0},{"property_id":33547.0,"lat":-37.727984,"lng":145.001625,"addr_street":"10 Verdun Grove","price":7650000.0,"property_type":"house","year":2010.0,"bedrooms":2.0,"bathrooms":1.0,"parking_space":1.0},{"property_id":55911.0,"lat":-37.83819,"lng":145.082069,"addr_street":"7 Wiringa Avenue","price":26180000.0,"property_type":"house","year":2015.0,"bedrooms":4.0,"bathrooms":3.0,"parking_space":2.0},{"property_id":29474.0,"lat":-37.766848,"lng":144.989097,"addr_street":"150 Elm Street","price":11775000.0,"property_type":"house","year":2012.0,"bedrooms":4.0,"bathrooms":1.0,"parking_space":1.0},{"property_id":20703.0,"lat":-37.76789474,"lng":144.9396973,"addr_street":"19 Passfield Street","price":5600000.0,"property_type":"house","year":2009.0,"bedrooms":3.0,"bathrooms":1.0,"parking_space":3.0},{"property_id":540.0,"lat":-37.805149,"lng":144.888868,"addr_street":"2 James Street","price":7280000.0,"property_type":"house","year":2013.0,"bedrooms":2.0,"bathrooms":1.0,"parking_space":1.0},{"property_id":13706.0,"lat":-37.747402,"lng":144.909249,"addr_street":"109 Lincoln Road","price":10880000.0,"property_type":"house","year":2011.0,"bedrooms":3.0,"bathrooms":1.0,"parking_space":1.0},{"property_id":58653.0,"lat":-37.82489,"lng":145.172447,"addr_street":"198A Central Road","price":4960000.0,"property_type":"house","year":2010.0,"bedrooms":3.0,"bathrooms":2.0,"parking_space":2.0},{"property_id":38884.0,"lat":-37.773943,"lng":145.040871,"addr_street":"4 Rose Street","price":20570000.0,"property_type":"house","year":2013.0,"bedrooms":3.0,"bathrooms":2.0,"parking_space":2.0},{"property_id":68210.0,"lat":-37.849423,"lng":145.015138,"addr_street":"747 Malvern Road","price":44030000.0,"property_type":"house","year":2016.0,"bedrooms":4.0,"bathrooms":1.0,"parking_space":1.0},{"property_id":70634.0,"lat":-37.888249,"lng":145.102274,"addr_street":"20 Helen Road","price":7920000.0,"property_type":"house","year":2014.0,"bedrooms":4.0,"bathrooms":3.0,"parking_space":2.0},{"property_id":1025.0,"lat":-37.795135,"lng":144.883592,"addr_street":"42 Stafford Street","price":8190000.0,"property_type":"house","year":2015.0,"bedrooms":2.0,"bathrooms":1.0,"parking_space":0.0},{"property_id":34792.0,"lat":-37.720248,"lng":144.993998,"addr_street":"36 Wattle Grove","price":7452000.0,"property_type":"house","year":2014.0,"bedrooms":4.0,"bathrooms":1.0,"parking_space":2.0},{"property_id":75365.0,"lat":-37.898533,"lng":145.061669,"addr_street":"61 Woornack Road","price":12070000.0,"property_type":"house","year":2012.0,"bedrooms":3.0,"bathrooms":1.0,"parking_space":2.0},{"property_id":50088.0,"lat":-37.765008,"lng":145.085349,"addr_street":"27 Austin Street","price":11050000.0,"property_type":"house","year":2010.0,"bedrooms":3.0,"bathrooms":1.0,"parking_space":1.0},{"property_id":70587.0,"lat":-37.878284,"lng":145.095464,"addr_street":"19 Thurloo Street","price":8475000.0,"property_type":"house","year":2012.0,"bedrooms":2.0,"bathrooms":1.0,"parking_space":1.0},{"property_id":95625.0,"lat":-37.9305751,"lng":145.0419818,"addr_street":"35A Gilmour Road","price":7740000.0,"property_type":"house","year":2010.0,"bedrooms":3.0,"bathrooms":2.0,"parking_space":2.0},{"property_id":26287.0,"lat":-37.57969666,"lng":144.9324799,"addr_street":"29 Swinburne Close","price":2080000.0,"property_type":"house","year":2008.0,"bedrooms":2.0,"bathrooms":1.0,"parking_space":2.0},{"property_id":8640.0,"lat":-37.759199,"lng":144.784968,"addr_street":"7 Tom Rigg Street","price":7350000.0,"property_type":"house","year":2011.0,"bedrooms":4.0,"bathrooms":2.0,"parking_space":2.0},{"property_id":28823.0,"lat":-37.80873108,"lng":144.9941559,"addr_street":"14 Park Street","price":6790000.0,"property_type":"house","year":2008.0,"bedrooms":2.0,"bathrooms":1.0,"parking_space":2.0},{"property_id":58431.0,"lat":-37.828999,"lng":145.187243,"addr_street":"1\/121 Rooks Road","price":6538000.0,"property_type":"house","year":2013.0,"bedrooms":2.0,"bathrooms":1.0,"parking_space":2.0},{"property_id":67288.0,"lat":-37.756124,"lng":145.340011,"addr_street":"27 Albert Hill Road","price":7356000.0,"property_type":"house","year":2010.0,"bedrooms":3.0,"bathrooms":2.0,"parking_space":2.0},{"property_id":67221.0,"lat":-37.77051926,"lng":145.3633118,"addr_street":"21 David Road","price":8874000.0,"property_type":"house","year":2009.0,"bedrooms":4.0,"bathrooms":3.0,"parking_space":2.0},{"property_id":4728.0,"lat":-37.84808731,"lng":144.869278,"addr_street":"9 Revo Street","price":10030000.0,"property_type":"house","year":2008.0,"bedrooms":4.0,"bathrooms":2.0,"parking_space":1.0},{"property_id":12359.0,"lat":-37.722065,"lng":144.765009,"addr_street":"15 Granite Way","price":5226000.0,"property_type":"house","year":2010.0,"bedrooms":3.0,"bathrooms":1.0,"parking_space":0.0},{"property_id":51099.0,"lat":-37.79425812,"lng":145.113739,"addr_street":"24 Stanton Street","price":8060000.0,"property_type":"house","year":2009.0,"bedrooms":3.0,"bathrooms":1.0,"parking_space":2.0},{"property_id":47675.0,"lat":-37.7940104,"lng":145.024748,"addr_street":"1 Cremin Close","price":7504000.0,"property_type":"house","year":2011.0,"bedrooms":5.0,"bathrooms":3.0,"parking_space":2.0},{"property_id":29801.0,"lat":-37.768744,"lng":144.988758,"addr_street":"26 Auburn Avenue","price":15390000.0,"property_type":"house","year":2014.0,"bedrooms":4.0,"bathrooms":2.0,"parking_space":0.0},{"property_id":75535.0,"lat":-37.899752,"lng":145.056626,"addr_street":"94 Oakleigh Road","price":9845000.0,"property_type":"house","year":2010.0,"bedrooms":2.0,"bathrooms":1.0,"parking_space":2.0},{"property_id":20050.0,"lat":-37.794058,"lng":144.974799,"addr_street":"140-142 Station Street","price":16200000.0,"property_type":"house","year":2016.0,"bedrooms":3.0,"bathrooms":1.0,"parking_space":2.0},{"property_id":7482.0,"lat":-37.737721,"lng":144.826434,"addr_street":"4 Woolstone Close","price":6720000.0,"property_type":"house","year":2016.0,"bedrooms":4.0,"bathrooms":2.0,"parking_space":0.0},{"property_id":30679.0,"lat":-37.75787,"lng":145.008709,"addr_street":"129 Rossmoyne Street","price":9450000.0,"property_type":"house","year":2010.0,"bedrooms":3.0,"bathrooms":2.0,"parking_space":2.0},{"property_id":73358.0,"lat":-37.859959,"lng":145.297797,"addr_street":"25 Moncoe Street","price":6460000.0,"property_type":"house","year":2014.0,"bedrooms":2.0,"bathrooms":1.0,"parking_space":1.0},{"property_id":95581.0,"lat":-37.930685,"lng":145.041786,"addr_street":"33A Gilmour Road","price":9503000.0,"property_type":"house","year":2010.0,"bedrooms":3.0,"bathrooms":2.0,"parking_space":1.0},{"property_id":35256.0,"lat":-37.728765,"lng":145.03113,"addr_street":"59 Clingin Street","price":4284000.0,"property_type":"house","year":2015.0,"bedrooms":3.0,"bathrooms":1.0,"parking_space":2.0},{"property_id":84813.0,"lat":-37.87289047,"lng":144.9801025,"addr_street":"254 Barkly Street","price":7425000.0,"property_type":"house","year":2009.0,"bedrooms":3.0,"bathrooms":2.0,"parking_space":1.0},{"property_id":16802.0,"lat":-37.705085,"lng":144.934784,"addr_street":"21 Maude Avenue","price":7420000.0,"property_type":"house","year":2010.0,"bedrooms":3.0,"bathrooms":1.0,"parking_space":2.0},{"property_id":83848.0,"lat":-37.854506,"lng":144.996484,"addr_street":"3\/4 Mary Street","price":7480000.0,"property_type":"house","year":2012.0,"bedrooms":3.0,"bathrooms":2.0,"parking_space":2.0},{"property_id":66222.0,"lat":-37.784686,"lng":145.320699,"addr_street":"301 Hull Road","price":6492000.0,"property_type":"house","year":2016.0,"bedrooms":3.0,"bathrooms":1.0,"parking_space":2.0},{"property_id":82512.0,"lat":-37.908405,"lng":145.271878,"addr_street":"102 Sovereign Manors Crescent","price":4140000.0,"property_type":"house","year":2013.0,"bedrooms":3.0,"bathrooms":2.0,"parking_space":1.0},{"property_id":71491.0,"lat":-37.854439,"lng":145.222746,"addr_street":"38 Croxteth Way","price":8000000.0,"property_type":"house","year":2015.0,"bedrooms":4.0,"bathrooms":2.0,"parking_space":2.0},{"property_id":13362.0,"lat":-37.707426,"lng":144.771636,"addr_street":"63 Roseleigh Boulevard","price":5319000.0,"property_type":"house","year":2016.0,"bedrooms":4.0,"bathrooms":2.0,"parking_space":2.0},{"property_id":71096.0,"lat":-37.860898,"lng":145.222287,"addr_street":"12 Tanderra Crescent","price":4473000.0,"property_type":"house","year":2009.0,"bedrooms":5.0,"bathrooms":3.0,"parking_space":2.0},{"property_id":74142.0,"lat":-37.913762,"lng":145.280919,"addr_street":"22 Jindabyne Court","price":8671000.0,"property_type":"house","year":2015.0,"bedrooms":4.0,"bathrooms":2.0,"parking_space":2.0},{"property_id":70904.0,"lat":-37.884043,"lng":145.10647,"addr_street":"8 Yambie Lane","price":10584000.0,"property_type":"house","year":2011.0,"bedrooms":5.0,"bathrooms":2.0,"parking_space":2.0},{"property_id":72314.0,"lat":-37.839581,"lng":145.254894,"addr_street":"31 Marlborough Road","price":4380000.0,"property_type":"house","year":2013.0,"bedrooms":3.0,"bathrooms":1.0,"parking_space":1.0},{"property_id":44025.0,"lat":-37.701594,"lng":145.100164,"addr_street":"1\/34 Jessop Street","price":4617000.0,"property_type":"house","year":2014.0,"bedrooms":3.0,"bathrooms":1.0,"parking_space":2.0},{"property_id":75244.0,"lat":-37.893456,"lng":145.052493,"addr_street":"5 Reserve Avenue","price":15980000.0,"property_type":"house","year":2010.0,"bedrooms":2.0,"bathrooms":1.0,"parking_space":2.0},{"property_id":1607.0,"lat":-37.81905,"lng":144.844843,"addr_street":"1\/50 Corrigan Avenue","price":3150000.0,"property_type":"house","year":2010.0,"bedrooms":3.0,"bathrooms":1.0,"parking_space":1.0},{"property_id":18752.0,"lat":-37.68812943,"lng":144.9141693,"addr_street":"36 Landy Road","price":4726000.0,"property_type":"house","year":2008.0,"bedrooms":3.0,"bathrooms":1.0,"parking_space":1.0},{"property_id":13553.0,"lat":-37.72306061,"lng":144.7671509,"addr_street":"9 Basalt Court","price":4096000.0,"property_type":"house","year":2008.0,"bedrooms":3.0,"bathrooms":2.0,"parking_space":0.0},{"property_id":59555.0,"lat":-37.806605,"lng":145.197484,"addr_street":"2 Endeavour Street","price":5280000.0,"property_type":"house","year":2014.0,"bedrooms":3.0,"bathrooms":1.0,"parking_space":1.0},{"property_id":66101.0,"lat":-37.786689,"lng":145.317348,"addr_street":"255 Hull Road","price":6075000.0,"property_type":"house","year":2016.0,"bedrooms":3.0,"bathrooms":2.0,"parking_space":1.0},{"property_id":30434.0,"lat":-37.778993,"lng":145.000444,"addr_street":"8 Yeomans Street","price":11430000.0,"property_type":"house","year":2014.0,"bedrooms":4.0,"bathrooms":2.0,"parking_space":2.0},{"property_id":19823.0,"lat":-37.679624,"lng":144.892859,"addr_street":"7 Pascoe Street","price":3760000.0,"property_type":"house","year":2014.0,"bedrooms":3.0,"bathrooms":1.0,"parking_space":0.0},{"property_id":42945.0,"lat":-37.719156,"lng":145.09049,"addr_street":"2 Hedline Place","price":7259000.0,"property_type":"house","year":2010.0,"bedrooms":3.0,"bathrooms":1.0,"parking_space":2.0},{"property_id":52612.0,"lat":-37.824566,"lng":144.99855,"addr_street":"2 Elm Grove","price":14925000.0,"property_type":"house","year":2012.0,"bedrooms":3.0,"bathrooms":1.0,"parking_space":1.0},{"property_id":81798.0,"lat":-37.986489,"lng":145.239982,"addr_street":"145 Power Road","price":9170000.0,"property_type":"house","year":2013.0,"bedrooms":3.0,"bathrooms":1.0,"parking_space":0.0},{"property_id":6834.0,"lat":-37.793884,"lng":144.829296,"addr_street":"54 Chapman St","price":5026000.0,"property_type":"house","year":2012.0,"bedrooms":3.0,"bathrooms":1.0,"parking_space":3.0},{"property_id":74329.0,"lat":-37.882549,"lng":145.030991,"addr_street":"31 Maxwell Grove","price":34170000.0,"property_type":"house","year":2015.0,"bedrooms":4.0,"bathrooms":2.0,"parking_space":2.0},{"property_id":8344.0,"lat":-37.752292,"lng":144.755606,"addr_street":"26 Paringa Way","price":6512000.0,"property_type":"house","year":2010.0,"bedrooms":4.0,"bathrooms":2.0,"parking_space":2.0},{"property_id":68284.0,"lat":-37.850296,"lng":145.015651,"addr_street":"12 Clendon Road","price":3780000.0,"property_type":"house","year":2015.0,"bedrooms":3.0,"bathrooms":1.0,"parking_space":0.0},{"property_id":12218.0,"lat":-37.712146,"lng":144.771964,"addr_street":"12 Lacebark Road","price":6160000.0,"property_type":"house","year":2010.0,"bedrooms":4.0,"bathrooms":2.0,"parking_space":2.0},{"property_id":39807.0,"lat":-37.69201,"lng":145.050494,"addr_street":"17 Ashbrook Circuit","price":6630000.0,"property_type":"house","year":2014.0,"bedrooms":3.0,"bathrooms":2.0,"parking_space":1.0},{"property_id":34291.0,"lat":-37.70403671,"lng":144.988266,"addr_street":"21 Godley Street","price":6120000.0,"property_type":"house","year":2009.0,"bedrooms":3.0,"bathrooms":1.0,"parking_space":2.0},{"property_id":65167.0,"lat":-37.79931,"lng":145.304212,"addr_street":"17 Churchill Way","price":4584000.0,"property_type":"house","year":2010.0,"bedrooms":2.0,"bathrooms":1.0,"parking_space":1.0},{"property_id":22048.0,"lat":-37.754996,"lng":144.965762,"addr_street":"16 Blair Street","price":15450000.0,"property_type":"house","year":2014.0,"bedrooms":4.0,"bathrooms":1.0,"parking_space":2.0},{"property_id":44736.0,"lat":-37.689314,"lng":145.096956,"addr_street":"25 Wanbanna Avenue","price":5280000.0,"property_type":"house","year":2012.0,"bedrooms":4.0,"bathrooms":2.0,"parking_space":0.0},{"property_id":30509.0,"lat":-37.778014,"lng":144.996766,"addr_street":"93 Bridge Street","price":25670000.0,"property_type":"house","year":2014.0,"bedrooms":4.0,"bathrooms":3.0,"parking_space":2.0},{"property_id":57925.0,"lat":-37.822359,"lng":145.161697,"addr_street":"28 Glen Ebor Avenue","price":17600000.0,"property_type":"house","year":2015.0,"bedrooms":4.0,"bathrooms":2.0,"parking_space":2.0},{"property_id":1100.0,"lat":-37.7966423,"lng":144.8948669,"addr_street":"5 Central Avenue","price":8260000.0,"property_type":"house","year":2008.0,"bedrooms":3.0,"bathrooms":2.0,"parking_space":2.0},{"property_id":5622.0,"lat":-37.78424835,"lng":144.8627319,"addr_street":"20 Middleton Street","price":1850000.0,"property_type":"house","year":2009.0,"bedrooms":3.0,"bathrooms":1.0,"parking_space":0.0},{"property_id":41445.0,"lat":-37.743458,"lng":145.08235,"addr_street":"104 Banyule Road","price":16745000.0,"property_type":"house","year":2015.0,"bedrooms":4.0,"bathrooms":2.0,"parking_space":2.0},{"property_id":11572.0,"lat":-37.77462006,"lng":144.8775635,"addr_street":"68 Williamson Road","price":12800000.0,"property_type":"house","year":2009.0,"bedrooms":4.0,"bathrooms":3.0,"parking_space":2.0},{"property_id":95326.0,"lat":-37.90435791,"lng":145.0518036,"addr_street":"26 Garfield Avenue","price":8528000.0,"property_type":"house","year":2008.0,"bedrooms":3.0,"bathrooms":1.0,"parking_space":1.0},{"property_id":55386.0,"lat":-37.837304,"lng":145.065073,"addr_street":"26 Judd Street","price":14430000.0,"property_type":"house","year":2010.0,"bedrooms":3.0,"bathrooms":2.0,"parking_space":0.0},{"property_id":61485.0,"lat":-37.773049,"lng":145.246889,"addr_street":"2 Hutchins Court","price":8398000.0,"property_type":"house","year":2015.0,"bedrooms":4.0,"bathrooms":2.0,"parking_space":3.0},{"property_id":76775.0,"lat":-37.916972,"lng":145.138429,"addr_street":"31 Morton Street","price":11368000.0,"property_type":"house","year":2014.0,"bedrooms":3.0,"bathrooms":1.0,"parking_space":1.0},{"property_id":84176.0,"lat":-37.8547886,"lng":144.9971905,"addr_street":"5-7 Cyril Street","price":8930000.0,"property_type":"house","year":2013.0,"bedrooms":3.0,"bathrooms":1.0,"parking_space":0.0},{"property_id":57913.0,"lat":-37.811395,"lng":145.147902,"addr_street":"27 Kevin Avenue","price":11040000.0,"property_type":"house","year":2016.0,"bedrooms":4.0,"bathrooms":1.0,"parking_space":1.0},{"property_id":9010.0,"lat":-37.86354065,"lng":144.7666931,"addr_street":"28 Heffernan Street","price":5610000.0,"property_type":"house","year":2009.0,"bedrooms":3.0,"bathrooms":1.0,"parking_space":3.0},{"property_id":25532.0,"lat":-37.5751922,"lng":144.918862,"addr_street":"15829 HIGHLANDS","price":3060000.0,"property_type":"house","year":2015.0,"bedrooms":3.0,"bathrooms":2.0,"parking_space":2.0},{"property_id":27458.0,"lat":-37.577246,"lng":144.928241,"addr_street":"60 Ardsley Circuit","price":2871000.0,"property_type":"house","year":2010.0,"bedrooms":3.0,"bathrooms":2.0,"parking_space":2.0},{"property_id":63543.0,"lat":-37.79883957,"lng":145.2760315,"addr_street":"14 Ridgway Avenue","price":11270000.0,"property_type":"house","year":2008.0,"bedrooms":3.0,"bathrooms":1.0,"parking_space":1.0},{"property_id":77022.0,"lat":-37.916472,"lng":145.124086,"addr_street":"9 Prince Street","price":9960000.0,"property_type":"house","year":2014.0,"bedrooms":5.0,"bathrooms":2.0,"parking_space":1.0},{"property_id":61729.0,"lat":-37.81682,"lng":145.229717,"addr_street":"3 Kendall Street","price":8260000.0,"property_type":"house","year":2013.0,"bedrooms":4.0,"bathrooms":1.0,"parking_space":0.0},{"property_id":41638.0,"lat":-37.744464,"lng":145.073383,"addr_street":"15 Laane Avenue","price":10464000.0,"property_type":"house","year":2012.0,"bedrooms":2.0,"bathrooms":1.0,"parking_space":1.0},{"property_id":49205.0,"lat":-37.806941,"lng":145.091095,"addr_street":"20 Bruce Street","price":26400000.0,"property_type":"house","year":2016.0,"bedrooms":4.0,"bathrooms":2.0,"parking_space":3.0},{"property_id":94010.0,"lat":-38.065406,"lng":145.125896,"addr_street":"65 Coast Banksia Drive","price":11900000.0,"property_type":"house","year":2016.0,"bedrooms":3.0,"bathrooms":2.0,"parking_space":2.0},{"property_id":88120.0,"lat":-37.9418335,"lng":145.0434876,"addr_street":"19 Hillston Road","price":11920000.0,"property_type":"house","year":2009.0,"bedrooms":3.0,"bathrooms":1.0,"parking_space":2.0},{"property_id":83161.0,"lat":-37.888661,"lng":145.252208,"addr_street":"32 Anne Road","price":7820000.0,"property_type":"house","year":2010.0,"bedrooms":4.0,"bathrooms":2.0,"parking_space":2.0},{"property_id":37922.0,"lat":-37.773873,"lng":145.024062,"addr_street":"101 Perry Street","price":16200000.0,"property_type":"house","year":2009.0,"bedrooms":3.0,"bathrooms":1.0,"parking_space":2.0},{"property_id":2267.0,"lat":-37.784018,"lng":144.88152,"addr_street":"41 Ringtail Circuit","price":8905000.0,"property_type":"house","year":2015.0,"bedrooms":4.0,"bathrooms":2.0,"parking_space":1.0},{"property_id":44668.0,"lat":-37.69622803,"lng":145.1257019,"addr_street":"223 St. Helena Road","price":8470000.0,"property_type":"house","year":2009.0,"bedrooms":4.0,"bathrooms":2.0,"parking_space":1.0},{"property_id":86161.0,"lat":-37.890793,"lng":145.00029,"addr_street":"149 Cochrane St","price":14432000.0,"property_type":"house","year":2012.0,"bedrooms":3.0,"bathrooms":1.0,"parking_space":1.0},{"property_id":10519.0,"lat":-37.7838,"lng":144.92852,"addr_street":"4 Waltham Street","price":5940000.0,"property_type":"house","year":2013.0,"bedrooms":2.0,"bathrooms":2.0,"parking_space":1.0},{"property_id":81471.0,"lat":-37.993854,"lng":145.202345,"addr_street":"7 Moomba Parade","price":5200000.0,"property_type":"house","year":2015.0,"bedrooms":3.0,"bathrooms":1.0,"parking_space":1.0},{"property_id":68731.0,"lat":-37.845616,"lng":145.030523,"addr_street":"10\/423 Glenferrie Road","price":16250000.0,"property_type":"house","year":2015.0,"bedrooms":3.0,"bathrooms":2.0,"parking_space":2.0},{"property_id":37074.0,"lat":-37.64736938,"lng":145.0508118,"addr_street":"201 McDonalds Road","price":4350000.0,"property_type":"house","year":2009.0,"bedrooms":3.0,"bathrooms":1.0,"parking_space":0.0},{"property_id":52885.0,"lat":-37.821497,"lng":145.010134,"addr_street":"28 Stawell Street","price":15620000.0,"property_type":"house","year":2016.0,"bedrooms":3.0,"bathrooms":1.0,"parking_space":0.0},{"property_id":34656.0,"lat":-37.696888,"lng":145.018104,"addr_street":"31 Arundel Avenue","price":6460000.0,"property_type":"house","year":2015.0,"bedrooms":3.0,"bathrooms":2.0,"parking_space":1.0},{"property_id":72577.0,"lat":-37.85554886,"lng":145.2581329,"addr_street":"79 Sasses Avenue","price":6400000.0,"property_type":"house","year":2006.0,"bedrooms":4.0,"bathrooms":2.0,"parking_space":2.0},{"property_id":72053.0,"lat":-37.84540176,"lng":145.2653961,"addr_street":"14 Coolibah Crescent","price":4310000.0,"property_type":"house","year":2009.0,"bedrooms":3.0,"bathrooms":1.0,"parking_space":1.0},{"property_id":22387.0,"lat":-37.750957,"lng":144.952391,"addr_street":"25 Clarendon Street","price":13125000.0,"property_type":"house","year":2011.0,"bedrooms":4.0,"bathrooms":1.0,"parking_space":1.0},{"property_id":62745.0,"lat":-37.836019,"lng":145.232932,"addr_street":"23 Hardy Crescent","price":7200000.0,"property_type":"house","year":2011.0,"bedrooms":4.0,"bathrooms":2.0,"parking_space":2.0},{"property_id":29140.0,"lat":-37.799682,"lng":144.998436,"addr_street":"85 Turner Street","price":18590000.0,"property_type":"house","year":2016.0,"bedrooms":2.0,"bathrooms":1.0,"parking_space":1.0},{"property_id":58537.0,"lat":-37.82992172,"lng":145.1756897,"addr_street":"12 Holberry Street","price":6630000.0,"property_type":"house","year":2008.0,"bedrooms":4.0,"bathrooms":2.0,"parking_space":2.0},{"property_id":55428.0,"lat":-37.842909,"lng":145.093597,"addr_street":"28 Thomas Street","price":6580000.0,"property_type":"house","year":2016.0,"bedrooms":2.0,"bathrooms":1.0,"parking_space":0.0},{"property_id":24540.0,"lat":-37.6950565,"lng":144.9712059,"addr_street":"66 Somerlayton Crescent","price":5538000.0,"property_type":"house","year":2012.0,"bedrooms":3.0,"bathrooms":1.0,"parking_space":2.0},{"property_id":79628.0,"lat":-37.991876,"lng":145.164454,"addr_street":"13 Garden Court","price":3744000.0,"property_type":"house","year":2012.0,"bedrooms":3.0,"bathrooms":1.0,"parking_space":2.0},{"property_id":60515.0,"lat":-37.843069,"lng":145.194961,"addr_street":"17 Bellbird Crescent","price":6168000.0,"property_type":"house","year":2014.0,"bedrooms":4.0,"bathrooms":2.0,"parking_space":2.0},{"property_id":91601.0,"lat":-37.97580338,"lng":145.0470581,"addr_street":"39 Church Street","price":8200000.0,"property_type":"house","year":2008.0,"bedrooms":4.0,"bathrooms":1.0,"parking_space":1.0},{"property_id":57891.0,"lat":-37.822546,"lng":145.150157,"addr_street":"25 Main Street","price":21000000.0,"property_type":"house","year":2016.0,"bedrooms":3.0,"bathrooms":1.0,"parking_space":2.0},{"property_id":95031.0,"lat":-37.91183853,"lng":145.0517883,"addr_street":"19 Shanahan Crescent","price":10530000.0,"property_type":"house","year":2009.0,"bedrooms":3.0,"bathrooms":1.0,"parking_space":1.0},{"property_id":69140.0,"lat":-37.851375,"lng":145.032959,"addr_street":"4 Plant Street","price":18810000.0,"property_type":"house","year":2012.0,"bedrooms":4.0,"bathrooms":2.0,"parking_space":1.0},{"property_id":91881.0,"lat":-37.983361,"lng":145.041313,"addr_street":"93 Oak Street","price":9845000.0,"property_type":"house","year":2011.0,"bedrooms":3.0,"bathrooms":1.0,"parking_space":2.0},{"property_id":66250.0,"lat":-37.773345,"lng":145.325915,"addr_street":"33 Bimbadeen Drive","price":4675000.0,"property_type":"house","year":2011.0,"bedrooms":4.0,"bathrooms":3.0,"parking_space":2.0},{"property_id":6295.0,"lat":-37.780421,"lng":144.820304,"addr_street":"18 Kamarooka st","price":3267000.0,"property_type":"house","year":2013.0,"bedrooms":2.0,"bathrooms":1.0,"parking_space":1.0},{"property_id":18919.0,"lat":-37.665446,"lng":144.934489,"addr_street":"477 Barry Road","price":5550000.0,"property_type":"house","year":2015.0,"bedrooms":4.0,"bathrooms":2.0,"parking_space":1.0},{"property_id":30845.0,"lat":-37.759428,"lng":145.012165,"addr_street":"172 Gooch Street","price":4976000.0,"property_type":"house","year":2013.0,"bedrooms":2.0,"bathrooms":1.0,"parking_space":1.0},{"property_id":55769.0,"lat":-37.842835,"lng":145.063871,"addr_street":"52 Athelstan Road","price":32550000.0,"property_type":"house","year":2010.0,"bedrooms":4.0,"bathrooms":3.0,"parking_space":2.0},{"property_id":74916.0,"lat":-37.89191818,"lng":145.0630798,"addr_street":"27 Margaret Street","price":6597000.0,"property_type":"house","year":2009.0,"bedrooms":3.0,"bathrooms":2.0,"parking_space":1.0},{"property_id":5900.0,"lat":-37.785021,"lng":144.853678,"addr_street":"87 Hargreaves Crescent","price":4740000.0,"property_type":"house","year":2011.0,"bedrooms":3.0,"bathrooms":1.0,"parking_space":0.0},{"property_id":57143.0,"lat":-37.824243,"lng":145.069785,"addr_street":"20 Beaumont Street","price":8801000.0,"property_type":"house","year":2013.0,"bedrooms":4.0,"bathrooms":2.0,"parking_space":2.0},{"property_id":83345.0,"lat":-37.85429,"lng":145.007682,"addr_street":"1 Highbury Grove","price":9600000.0,"property_type":"house","year":2014.0,"bedrooms":4.0,"bathrooms":1.0,"parking_space":1.0},{"property_id":64000.0,"lat":-37.779823,"lng":145.304217,"addr_street":"24 Bambra Street","price":5661000.0,"property_type":"house","year":2015.0,"bedrooms":4.0,"bathrooms":2.0,"parking_space":2.0},{"property_id":89951.0,"lat":-37.96976089,"lng":145.0729523,"addr_street":"127 Devon Street","price":4304000.0,"property_type":"house","year":2008.0,"bedrooms":3.0,"bathrooms":2.0,"parking_space":2.0},{"property_id":21495.0,"lat":-37.77539444,"lng":144.9521637,"addr_street":"7 Gray Street","price":4896000.0,"property_type":"house","year":2009.0,"bedrooms":3.0,"bathrooms":1.0,"parking_space":1.0},{"property_id":20789.0,"lat":-37.757449,"lng":144.95537,"addr_street":"21 Canberra Street","price":16150000.0,"property_type":"house","year":2015.0,"bedrooms":4.0,"bathrooms":2.0,"parking_space":2.0},{"property_id":63302.0,"lat":-37.791848,"lng":145.290481,"addr_street":"1\/5 Niel Street","price":4500000.0,"property_type":"house","year":2016.0,"bedrooms":2.0,"bathrooms":1.0,"parking_space":1.0},{"property_id":79131.0,"lat":-37.9617352,"lng":145.1551769,"addr_street":"47 GOODWOOD DRIVE","price":18000000.0,"property_type":"house","year":2014.0,"bedrooms":4.0,"bathrooms":2.0,"parking_space":0.0},{"property_id":6437.0,"lat":-37.799505,"lng":144.823381,"addr_street":"21 Boreham Street","price":4840000.0,"property_type":"house","year":2014.0,"bedrooms":3.0,"bathrooms":1.0,"parking_space":2.0},{"property_id":79462.0,"lat":-37.98554611,"lng":145.1634674,"addr_street":"1 Cromwell Court","price":3950000.0,"property_type":"house","year":2008.0,"bedrooms":3.0,"bathrooms":1.0,"parking_space":1.0},{"property_id":61699.0,"lat":-37.825747,"lng":145.226695,"addr_street":"2A Walmer Street","price":15640000.0,"property_type":"house","year":2016.0,"bedrooms":4.0,"bathrooms":2.0,"parking_space":2.0},{"property_id":21823.0,"lat":-37.74768066,"lng":144.9644775,"addr_street":"11 Sargood Street","price":4785000.0,"property_type":"house","year":2008.0,"bedrooms":3.0,"bathrooms":1.0,"parking_space":0.0},{"property_id":18746.0,"lat":-37.685428,"lng":144.913708,"addr_street":"36 Bamburgh Street","price":5600000.0,"property_type":"house","year":2011.0,"bedrooms":3.0,"bathrooms":1.0,"parking_space":0.0},{"property_id":48176.0,"lat":-37.803381,"lng":145.061514,"addr_street":"25 Second Avenue","price":23920000.0,"property_type":"house","year":2015.0,"bedrooms":3.0,"bathrooms":1.0,"parking_space":2.0},{"property_id":88848.0,"lat":-37.95502472,"lng":145.0359192,"addr_street":"4 Cloyne Street","price":6402000.0,"property_type":"house","year":2009.0,"bedrooms":3.0,"bathrooms":2.0,"parking_space":2.0},{"property_id":42601.0,"lat":-37.740285,"lng":145.08444,"addr_street":"8 De Burgh Court","price":6370000.0,"property_type":"house","year":2012.0,"bedrooms":3.0,"bathrooms":2.0,"parking_space":2.0},{"property_id":8375.0,"lat":-37.751297,"lng":144.779243,"addr_street":"29 Sullivan Road","price":6660000.0,"property_type":"house","year":2016.0,"bedrooms":4.0,"bathrooms":2.0,"parking_space":2.0},{"property_id":24996.0,"lat":-37.59229279,"lng":144.9256134,"addr_street":"10 Gatwick Court","price":3900000.0,"property_type":"house","year":2009.0,"bedrooms":3.0,"bathrooms":1.0,"parking_space":2.0},{"property_id":11440.0,"lat":-37.77123,"lng":144.876327,"addr_street":"4 Platypus Court","price":11500000.0,"property_type":"house","year":2016.0,"bedrooms":5.0,"bathrooms":3.0,"parking_space":2.0},{"property_id":70437.0,"lat":-37.88716888,"lng":145.1040955,"addr_street":"1\/2 Kalymna Grove","price":21440000.0,"property_type":"house","year":2008.0,"bedrooms":2.0,"bathrooms":1.0,"parking_space":1.0},{"property_id":53382.0,"lat":-37.82302094,"lng":145.0125427,"addr_street":"48 Westbank Tce","price":3780000.0,"property_type":"house","year":2008.0,"bedrooms":3.0,"bathrooms":1.0,"parking_space":2.0},{"property_id":52580.0,"lat":-37.833402,"lng":144.998417,"addr_street":"191 Brighton Street","price":17780000.0,"property_type":"house","year":2013.0,"bedrooms":3.0,"bathrooms":1.0,"parking_space":0.0},{"property_id":38313.0,"lat":-37.771446,"lng":145.029497,"addr_street":"45 Keith Street","price":19500000.0,"property_type":"house","year":2016.0,"bedrooms":3.0,"bathrooms":1.0,"parking_space":1.0},{"property_id":85534.0,"lat":-37.88832855,"lng":145.0110169,"addr_street":"32 Parkside Street","price":8100000.0,"property_type":"house","year":2009.0,"bedrooms":3.0,"bathrooms":1.0,"parking_space":2.0},{"property_id":93159.0,"lat":-38.007162,"lng":145.101792,"addr_street":"3 Moloney Close","price":10860000.0,"property_type":"house","year":2012.0,"bedrooms":5.0,"bathrooms":3.0,"parking_space":2.0},{"property_id":86138.0,"lat":-37.924141,"lng":144.998581,"addr_street":"14 Lynch Street","price":23200000.0,"property_type":"house","year":2012.0,"bedrooms":4.0,"bathrooms":2.0,"parking_space":2.0},{"property_id":33770.0,"lat":-37.697103,"lng":145.005536,"addr_street":"13 Lindenow Street","price":6279000.0,"property_type":"house","year":2014.0,"bedrooms":3.0,"bathrooms":1.0,"parking_space":1.0},{"property_id":21995.0,"lat":-37.744015,"lng":144.949103,"addr_street":"145 Gordon Street","price":7692000.0,"property_type":"house","year":2010.0,"bedrooms":3.0,"bathrooms":1.0,"parking_space":1.0},{"property_id":89247.0,"lat":-37.957841,"lng":145.028596,"addr_street":"16 Wangara Road","price":14300000.0,"property_type":"house","year":2014.0,"bedrooms":4.0,"bathrooms":2.0,"parking_space":2.0},{"property_id":50193.0,"lat":-37.768111,"lng":145.091911,"addr_street":"36 Nirvana Crescent","price":15470000.0,"property_type":"house","year":2011.0,"bedrooms":4.0,"bathrooms":2.0,"parking_space":2.0},{"property_id":65469.0,"lat":-37.79611,"lng":145.307033,"addr_street":"67 Timms Avenue","price":9730000.0,"property_type":"house","year":2016.0,"bedrooms":4.0,"bathrooms":2.0,"parking_space":2.0},{"property_id":null,"lat":null,"lng":null,"addr_street":null,"price":null,"property_type":null,"year":null,"bedrooms":null,"bathrooms":null,"parking_space":null},{"property_id":80613.0,"lat":-37.975292,"lng":145.200667,"addr_street":"1 Elleston Court","price":23460000.0,"property_type":"house","year":2014.0,"bedrooms":2.0,"bathrooms":2.0,"parking_space":1.0},{"property_id":26676.0,"lat":-37.600747,"lng":144.926149,"addr_street":"38 Axminister Dr","price":3080000.0,"property_type":"house","year":2014.0,"bedrooms":3.0,"bathrooms":1.0,"parking_space":2.0},{"property_id":94161.0,"lat":-38.077561,"lng":145.127695,"addr_street":"22 Walkers Road","price":12496000.0,"property_type":"house","year":2016.0,"bedrooms":4.0,"bathrooms":1.0,"parking_space":1.0},{"property_id":88061.0,"lat":-37.94240189,"lng":145.0417633,"addr_street":"1067 Nepean Highway","price":5652000.0,"property_type":"house","year":2009.0,"bedrooms":3.0,"bathrooms":1.0,"parking_space":1.0},{"property_id":93553.0,"lat":-37.986727,"lng":145.071025,"addr_street":"6 Princes Court","price":5800000.0,"property_type":"house","year":2011.0,"bedrooms":4.0,"bathrooms":2.0,"parking_space":2.0},{"property_id":23192.0,"lat":-37.737915,"lng":144.959913,"addr_street":"8 Rolland Street","price":6354000.0,"property_type":"house","year":2015.0,"bedrooms":3.0,"bathrooms":1.0,"parking_space":0.0},{"property_id":95846.0,"lat":-37.903202,"lng":145.029137,"addr_street":"47 Stewart Street","price":14960000.0,"property_type":"house","year":2015.0,"bedrooms":2.0,"bathrooms":1.0,"parking_space":1.0},{"property_id":27692.0,"lat":-37.60153198,"lng":144.914093,"addr_street":"73 Mission Hills Way","price":7565000.0,"property_type":"house","year":2008.0,"bedrooms":5.0,"bathrooms":2.0,"parking_space":2.0},{"property_id":81686.0,"lat":-37.992958,"lng":145.244143,"addr_street":"11 Myrtle Grove","price":4578000.0,"property_type":"house","year":2011.0,"bedrooms":3.0,"bathrooms":1.0,"parking_space":0.0},{"property_id":5573.0,"lat":-37.78419113,"lng":144.8625488,"addr_street":"19 Middleton Street","price":5550000.0,"property_type":"house","year":2009.0,"bedrooms":2.0,"bathrooms":1.0,"parking_space":3.0},{"property_id":77626.0,"lat":-37.921236,"lng":145.16726,"addr_street":"2 Danube Place","price":8050000.0,"property_type":"house","year":2015.0,"bedrooms":4.0,"bathrooms":2.0,"parking_space":2.0},{"property_id":4783.0,"lat":-37.870592,"lng":144.81647,"addr_street":"1\/2 Bracken Grove","price":6000000.0,"property_type":"house","year":2015.0,"bedrooms":2.0,"bathrooms":1.0,"parking_space":1.0},{"property_id":95719.0,"lat":-37.91434479,"lng":145.0404663,"addr_street":"4 Godfrey Street","price":6040000.0,"property_type":"house","year":2009.0,"bedrooms":3.0,"bathrooms":1.0,"parking_space":2.0},{"property_id":10639.0,"lat":-37.785439,"lng":144.924748,"addr_street":"50 Edinburgh Street","price":11620000.0,"property_type":"house","year":2010.0,"bedrooms":3.0,"bathrooms":1.0,"parking_space":0.0},{"property_id":5854.0,"lat":-37.784943,"lng":144.862125,"addr_street":"7 Middleton Street","price":4840000.0,"property_type":"house","year":2012.0,"bedrooms":3.0,"bathrooms":1.0,"parking_space":1.0},{"property_id":2000.0,"lat":-37.78502274,"lng":144.8692017,"addr_street":"21 Janson Street","price":8840000.0,"property_type":"house","year":2009.0,"bedrooms":4.0,"bathrooms":1.0,"parking_space":3.0},{"property_id":38054.0,"lat":-37.777342,"lng":145.027586,"addr_street":"18 Mercil Road","price":15070000.0,"property_type":"house","year":2011.0,"bedrooms":5.0,"bathrooms":2.0,"parking_space":2.0},{"property_id":4557.0,"lat":-37.847647,"lng":144.868261,"addr_street":"57 Maddox Road","price":8800000.0,"property_type":"house","year":2014.0,"bedrooms":3.0,"bathrooms":1.0,"parking_space":3.0},{"property_id":91256.0,"lat":-37.972977,"lng":145.040967,"addr_street":"14 Comas Road","price":11000000.0,"property_type":"house","year":2012.0,"bedrooms":4.0,"bathrooms":2.0,"parking_space":2.0},{"property_id":3016.0,"lat":-37.811171,"lng":144.896079,"addr_street":"1A Little Berry Street","price":5265000.0,"property_type":"house","year":2013.0,"bedrooms":1.0,"bathrooms":1.0,"parking_space":0.0},{"property_id":7934.0,"lat":-37.779719,"lng":144.800142,"addr_street":"72 Maxweld Street","price":3770000.0,"property_type":"house","year":2013.0,"bedrooms":3.0,"bathrooms":1.0,"parking_space":1.0},{"property_id":72164.0,"lat":-37.8497963,"lng":145.2732086,"addr_street":"2\/2 Percival Street","price":6936000.0,"property_type":"house","year":2009.0,"bedrooms":3.0,"bathrooms":2.0,"parking_space":0.0},{"property_id":48363.0,"lat":-37.805154,"lng":145.028964,"addr_street":"37 Princess Street","price":25280000.0,"property_type":"house","year":2010.0,"bedrooms":4.0,"bathrooms":2.0,"parking_space":2.0},{"property_id":43205.0,"lat":-37.721048,"lng":145.107852,"addr_street":"51 Allima Avenue","price":3510000.0,"property_type":"house","year":2011.0,"bedrooms":4.0,"bathrooms":2.0,"parking_space":2.0},{"property_id":36851.0,"lat":-37.629457,"lng":145.038904,"addr_street":"14 Mareborne Street","price":6006000.0,"property_type":"house","year":2011.0,"bedrooms":4.0,"bathrooms":2.0,"parking_space":1.0},{"property_id":39332.0,"lat":-37.699844,"lng":145.057737,"addr_street":"1\/1 Plenty Road","price":5715000.0,"property_type":"house","year":2011.0,"bedrooms":3.0,"bathrooms":2.0,"parking_space":1.0},{"property_id":76765.0,"lat":-37.918441,"lng":145.138142,"addr_street":"30 Dennis Street","price":22270000.0,"property_type":"house","year":2016.0,"bedrooms":3.0,"bathrooms":1.0,"parking_space":2.0},{"property_id":38544.0,"lat":-37.78128,"lng":145.038829,"addr_street":"11 Clark Road","price":35700000.0,"property_type":"house","year":2011.0,"bedrooms":5.0,"bathrooms":3.0,"parking_space":2.0},{"property_id":60976.0,"lat":-37.838422,"lng":145.184024,"addr_street":"9 Stevens Road","price":7000000.0,"property_type":"house","year":2012.0,"bedrooms":4.0,"bathrooms":1.0,"parking_space":1.0},{"property_id":40298.0,"lat":-37.692521,"lng":145.053317,"addr_street":"3 Hazelwood Court","price":6604000.0,"property_type":"house","year":2010.0,"bedrooms":3.0,"bathrooms":1.0,"parking_space":2.0},{"property_id":81446.0,"lat":-37.992018,"lng":145.218801,"addr_street":"68 Langhorne Street","price":13345000.0,"property_type":"house","year":2011.0,"bedrooms":5.0,"bathrooms":3.0,"parking_space":2.0},{"property_id":12626.0,"lat":-37.72533035,"lng":144.7646942,"addr_street":"20 Bluestone Walk","price":4420000.0,"property_type":"house","year":2008.0,"bedrooms":3.0,"bathrooms":1.0,"parking_space":1.0},{"property_id":23060.0,"lat":-37.74911499,"lng":144.9485626,"addr_street":"66 Gordon Street","price":8450000.0,"property_type":"house","year":2008.0,"bedrooms":3.0,"bathrooms":1.0,"parking_space":2.0},{"property_id":44668.0,"lat":-37.69622803,"lng":145.1257019,"addr_street":"223 St. Helena Road","price":8470000.0,"property_type":"house","year":2009.0,"bedrooms":4.0,"bathrooms":2.0,"parking_space":1.0},{"property_id":33438.0,"lat":-37.724791,"lng":145.022671,"addr_street":"1\/3 Boldrewood Parade","price":8925000.0,"property_type":"house","year":2010.0,"bedrooms":3.0,"bathrooms":1.0,"parking_space":1.0},{"property_id":21278.0,"lat":-37.766831,"lng":144.947169,"addr_street":"475 Albert Street","price":7320000.0,"property_type":"house","year":2012.0,"bedrooms":2.0,"bathrooms":1.0,"parking_space":2.0},{"property_id":71900.0,"lat":-37.851205,"lng":145.269528,"addr_street":"1 McComb Crescent","price":1770000.0,"property_type":"house","year":2012.0,"bedrooms":3.0,"bathrooms":1.0,"parking_space":0.0},{"property_id":61454.0,"lat":-37.80848312,"lng":145.2267761,"addr_street":"1a Andrew Street","price":7104000.0,"property_type":"house","year":2009.0,"bedrooms":4.0,"bathrooms":2.0,"parking_space":0.0},{"property_id":82794.0,"lat":-37.907991,"lng":145.275415,"addr_street":"47 Murrindal Drive","price":5994000.0,"property_type":"house","year":2014.0,"bedrooms":4.0,"bathrooms":2.0,"parking_space":2.0},{"property_id":69438.0,"lat":-37.86288452,"lng":145.092514,"addr_street":"105 Fakenham Road","price":5392000.0,"property_type":"house","year":2009.0,"bedrooms":2.0,"bathrooms":1.0,"parking_space":2.0},{"property_id":26001.0,"lat":-37.604432,"lng":144.913947,"addr_street":"22 Mission Hills Way","price":3840000.0,"property_type":"house","year":2013.0,"bedrooms":3.0,"bathrooms":3.0,"parking_space":1.0},{"property_id":47907.0,"lat":-37.79957962,"lng":145.0317841,"addr_street":"140 Brougham Street","price":19950000.0,"property_type":"house","year":2009.0,"bedrooms":3.0,"bathrooms":3.0,"parking_space":2.0},{"property_id":84513.0,"lat":-37.869625,"lng":144.992516,"addr_street":"41 Marlborough Street","price":8640000.0,"property_type":"house","year":2016.0,"bedrooms":3.0,"bathrooms":1.0,"parking_space":0.0},{"property_id":18487.0,"lat":-37.687692,"lng":144.926909,"addr_street":"222 Widford Street","price":6720000.0,"property_type":"house","year":2015.0,"bedrooms":3.0,"bathrooms":1.0,"parking_space":1.0},{"property_id":87829.0,"lat":-37.93720245,"lng":144.9990082,"addr_street":"57 Orlando Street","price":11280000.0,"property_type":"house","year":2009.0,"bedrooms":4.0,"bathrooms":3.0,"parking_space":2.0},{"property_id":72646.0,"lat":-37.847026,"lng":145.256578,"addr_street":"93 Orange Grove","price":5550000.0,"property_type":"house","year":2013.0,"bedrooms":4.0,"bathrooms":1.0,"parking_space":2.0},{"property_id":32839.0,"lat":-37.747999,"lng":144.997051,"addr_street":"48 Showers Street","price":10640000.0,"property_type":"house","year":2014.0,"bedrooms":3.0,"bathrooms":1.0,"parking_space":1.0},{"property_id":70736.0,"lat":-37.877848,"lng":145.109473,"addr_street":"321 Huntingdale Road","price":11120000.0,"property_type":"house","year":2015.0,"bedrooms":2.0,"bathrooms":1.0,"parking_space":1.0},{"property_id":1678.0,"lat":-37.780162,"lng":144.871529,"addr_street":"11\/42 Eucalyptus Drive","price":4810000.0,"property_type":"house","year":2015.0,"bedrooms":2.0,"bathrooms":2.0,"parking_space":1.0},{"property_id":59307.0,"lat":-37.828853,"lng":145.196739,"addr_street":"10 Vernal Avenue","price":8000000.0,"property_type":"house","year":2011.0,"bedrooms":3.0,"bathrooms":2.0,"parking_space":0.0},{"property_id":32419.0,"lat":-37.730327,"lng":145.009188,"addr_street":"250 Tyler Street","price":10680000.0,"property_type":"house","year":2016.0,"bedrooms":3.0,"bathrooms":1.0,"parking_space":1.0},{"property_id":19612.0,"lat":-37.675542,"lng":144.902719,"addr_street":"18  Lima Court","price":5530000.0,"property_type":"house","year":2015.0,"bedrooms":3.0,"bathrooms":1.0,"parking_space":1.0},{"property_id":10582.0,"lat":-37.782016,"lng":144.930371,"addr_street":"45 Farnham Street","price":6030000.0,"property_type":"house","year":2012.0,"bedrooms":3.0,"bathrooms":1.0,"parking_space":0.0},{"property_id":89454.0,"lat":-37.955628,"lng":145.015285,"addr_street":"32 Keats Street","price":17290000.0,"property_type":"house","year":2010.0,"bedrooms":4.0,"bathrooms":2.0,"parking_space":2.0},{"property_id":27137.0,"lat":-37.580808,"lng":144.922419,"addr_street":"5 Paddington Street","price":5885000.0,"property_type":"house","year":2013.0,"bedrooms":4.0,"bathrooms":2.0,"parking_space":2.0},{"property_id":94891.0,"lat":-37.90574265,"lng":145.0330963,"addr_street":"16 Malua St","price":6250000.0,"property_type":"house","year":2008.0,"bedrooms":3.0,"bathrooms":1.0,"parking_space":1.0},{"property_id":8963.0,"lat":-37.88619,"lng":144.759762,"addr_street":"2 John Cooke Terrace","price":5040000.0,"property_type":"house","year":2015.0,"bedrooms":3.0,"bathrooms":2.0,"parking_space":2.0},{"property_id":68097.0,"lat":-37.84,"lng":145.031477,"addr_street":"40 Warra Street","price":26240000.0,"property_type":"house","year":2013.0,"bedrooms":3.0,"bathrooms":2.0,"parking_space":2.0},{"property_id":13299.0,"lat":-37.698463,"lng":144.758738,"addr_street":"6 Bhangoo Court","price":3619000.0,"property_type":"house","year":2008.0,"bedrooms":4.0,"bathrooms":2.0,"parking_space":2.0},{"property_id":34512.0,"lat":-37.720981,"lng":144.996904,"addr_street":"28 Gloucester Street","price":12410000.0,"property_type":"house","year":2016.0,"bedrooms":3.0,"bathrooms":1.0,"parking_space":3.0},{"property_id":80763.0,"lat":-37.98372269,"lng":145.2046051,"addr_street":"13 Hopetoun Street","price":1656000.0,"property_type":"house","year":2009.0,"bedrooms":3.0,"bathrooms":1.0,"parking_space":1.0},{"property_id":2967.0,"lat":-37.814706,"lng":144.871159,"addr_street":"18 Gent Street","price":8060000.0,"property_type":"house","year":2011.0,"bedrooms":4.0,"bathrooms":1.0,"parking_space":2.0},{"property_id":31859.0,"lat":-37.747411,"lng":145.0046,"addr_street":"135 Plenty Road","price":5720000.0,"property_type":"house","year":2013.0,"bedrooms":3.0,"bathrooms":1.0,"parking_space":0.0},{"property_id":79533.0,"lat":-37.984327,"lng":145.159716,"addr_street":"105 Darren Road","price":8400000.0,"property_type":"house","year":2010.0,"bedrooms":4.0,"bathrooms":3.0,"parking_space":2.0},{"property_id":85217.0,"lat":-37.878655,"lng":144.994371,"addr_street":"106 Brighton Road","price":15800000.0,"property_type":"house","year":2016.0,"bedrooms":5.0,"bathrooms":2.0,"parking_space":3.0},{"property_id":91873.0,"lat":-37.975136,"lng":145.050723,"addr_street":"9 Towers Street","price":9864000.0,"property_type":"house","year":2010.0,"bedrooms":2.0,"bathrooms":1.0,"parking_space":0.0},{"property_id":58063.0,"lat":-37.816009,"lng":145.15455,"addr_street":"38 Francis Street","price":17280000.0,"property_type":"house","year":2014.0,"bedrooms":4.0,"bathrooms":1.0,"parking_space":2.0},{"property_id":7952.0,"lat":-37.77905273,"lng":144.7983246,"addr_street":"91 Blanche Street","price":4420000.0,"property_type":"house","year":2009.0,"bedrooms":3.0,"bathrooms":1.0,"parking_space":1.0},{"property_id":12960.0,"lat":-37.7035,"lng":144.761459,"addr_street":"31 Boberrit Wynd","price":4080000.0,"property_type":"house","year":2010.0,"bedrooms":4.0,"bathrooms":2.0,"parking_space":2.0},{"property_id":39802.0,"lat":-37.70563,"lng":145.066047,"addr_street":"161 Greenwood Drive","price":9600000.0,"property_type":"house","year":2016.0,"bedrooms":4.0,"bathrooms":2.0,"parking_space":1.0},{"property_id":32596.0,"lat":-37.749258,"lng":145.011222,"addr_street":"31 Newcastle Street","price":8030000.0,"property_type":"house","year":2015.0,"bedrooms":3.0,"bathrooms":1.0,"parking_space":1.0},{"property_id":95644.0,"lat":-37.900498,"lng":145.039258,"addr_street":"36 Newham Grove","price":7337000.0,"property_type":"house","year":2014.0,"bedrooms":2.0,"bathrooms":1.0,"parking_space":1.0},{"property_id":54016.0,"lat":-37.8218045,"lng":145.028221,"addr_street":"103\/151 Burwood Road","price":6790000.0,"property_type":"house","year":2011.0,"bedrooms":2.0,"bathrooms":1.0,"parking_space":1.0},{"property_id":63649.0,"lat":-37.78914261,"lng":145.3027344,"addr_street":"164 Lincoln Road","price":20410000.0,"property_type":"house","year":2009.0,"bedrooms":3.0,"bathrooms":1.0,"parking_space":0.0},{"property_id":53691.0,"lat":-37.820572,"lng":145.009966,"addr_street":"7 Type Street","price":12315000.0,"property_type":"house","year":2014.0,"bedrooms":3.0,"bathrooms":1.0,"parking_space":0.0},{"property_id":35325.0,"lat":-37.699882,"lng":145.027073,"addr_street":"6 Robins Avenue","price":6450000.0,"property_type":"house","year":2011.0,"bedrooms":3.0,"bathrooms":1.0,"parking_space":1.0},{"property_id":38247.0,"lat":-37.781272,"lng":145.016934,"addr_street":"35 Gillies Street","price":22200000.0,"property_type":"house","year":2013.0,"bedrooms":4.0,"bathrooms":1.0,"parking_space":1.0},{"property_id":39167.0,"lat":-37.751958,"lng":145.036832,"addr_street":"20 Davidson Street","price":10892000.0,"property_type":"house","year":2016.0,"bedrooms":3.0,"bathrooms":1.0,"parking_space":2.0},{"property_id":49805.0,"lat":-37.766807,"lng":145.080187,"addr_street":"1 Ilma Court","price":23630000.0,"property_type":"house","year":2015.0,"bedrooms":4.0,"bathrooms":3.0,"parking_space":3.0},{"property_id":81604.0,"lat":-37.983388,"lng":145.241291,"addr_street":"1 Jacinta Court","price":5280000.0,"property_type":"house","year":2015.0,"bedrooms":4.0,"bathrooms":2.0,"parking_space":2.0},{"property_id":16165.0,"lat":-37.698404,"lng":144.936764,"addr_street":"1 Daley Street","price":5520000.0,"property_type":"house","year":2015.0,"bedrooms":3.0,"bathrooms":1.0,"parking_space":2.0},{"property_id":35829.0,"lat":-37.677972,"lng":145.034574,"addr_street":"1 Warwick Court","price":6715000.0,"property_type":"house","year":2015.0,"bedrooms":3.0,"bathrooms":1.0,"parking_space":2.0},{"property_id":66879.0,"lat":-37.749676,"lng":145.361982,"addr_street":"10 Redmill Court","price":5135000.0,"property_type":"house","year":2010.0,"bedrooms":3.0,"bathrooms":2.0,"parking_space":0.0},{"property_id":14259.0,"lat":-37.751783,"lng":144.903678,"addr_street":"30 McCracken Street","price":17940000.0,"property_type":"house","year":2014.0,"bedrooms":4.0,"bathrooms":2.0,"parking_space":3.0},{"property_id":84698.0,"lat":-37.88405228,"lng":144.9896545,"addr_street":"17 Wave Street","price":16405000.0,"property_type":"house","year":2008.0,"bedrooms":2.0,"bathrooms":1.0,"parking_space":1.0},{"property_id":55686.0,"lat":-37.8473587,"lng":145.0868988,"addr_street":"43 Merton Street","price":15300000.0,"property_type":"house","year":2008.0,"bedrooms":3.0,"bathrooms":1.0,"parking_space":2.0},{"property_id":67112.0,"lat":-37.742482,"lng":145.344755,"addr_street":"17 Newhaven Court","price":8750000.0,"property_type":"house","year":2015.0,"bedrooms":3.0,"bathrooms":2.0,"parking_space":2.0},{"property_id":30074.0,"lat":-37.762678,"lng":144.998461,"addr_street":"41 Johnson Street","price":16080000.0,"property_type":"house","year":2016.0,"bedrooms":2.0,"bathrooms":1.0,"parking_space":1.0},{"property_id":31918.0,"lat":-37.746409,"lng":144.988414,"addr_street":"143 Gilbert Road","price":12784000.0,"property_type":"house","year":2016.0,"bedrooms":2.0,"bathrooms":1.0,"parking_space":1.0},{"property_id":45757.0,"lat":-37.718433,"lng":145.114333,"addr_street":"1\/78 Para Road","price":7520000.0,"property_type":"house","year":2016.0,"bedrooms":2.0,"bathrooms":2.0,"parking_space":2.0},{"property_id":9985.0,"lat":-37.79272842,"lng":144.9307861,"addr_street":"117 Eastwood st","price":6720000.0,"property_type":"house","year":2008.0,"bedrooms":2.0,"bathrooms":1.0,"parking_space":0.0},{"property_id":56397.0,"lat":-37.855642,"lng":145.117591,"addr_street":"219 Highbury Road","price":3250000.0,"property_type":"house","year":2015.0,"bedrooms":3.0,"bathrooms":1.0,"parking_space":0.0},{"property_id":40001.0,"lat":-37.71221,"lng":145.050712,"addr_street":"2\/31 Sanctuary Drive","price":5313000.0,"property_type":"house","year":2010.0,"bedrooms":2.0,"bathrooms":2.0,"parking_space":1.0},{"property_id":66148.0,"lat":-37.783847,"lng":145.325149,"addr_street":"28 WILLIAMS ROAD","price":6120000.0,"property_type":"house","year":2011.0,"bedrooms":3.0,"bathrooms":1.0,"parking_space":1.0},{"property_id":34941.0,"lat":-37.728054,"lng":145.021679,"addr_street":"42 Ashton Street","price":11900000.0,"property_type":"house","year":2015.0,"bedrooms":3.0,"bathrooms":1.0,"parking_space":2.0},{"property_id":29737.0,"lat":-37.776417,"lng":144.991031,"addr_street":"23 Charles Street","price":11844000.0,"property_type":"house","year":2015.0,"bedrooms":2.0,"bathrooms":1.0,"parking_space":2.0},{"property_id":18537.0,"lat":-37.674332,"lng":144.916873,"addr_street":"25 Talgarno Street","price":4530000.0,"property_type":"house","year":2011.0,"bedrooms":3.0,"bathrooms":1.0,"parking_space":2.0},{"property_id":69407.0,"lat":-37.867985,"lng":145.066671,"addr_street":"1\/7 Nairn Street","price":11244000.0,"property_type":"house","year":2012.0,"bedrooms":3.0,"bathrooms":2.0,"parking_space":2.0},{"property_id":7685.0,"lat":-37.73512268,"lng":144.8261261,"addr_street":"92 Driscolls Road","price":4070000.0,"property_type":"house","year":2009.0,"bedrooms":3.0,"bathrooms":2.0,"parking_space":2.0},{"property_id":46538.0,"lat":-37.717588,"lng":145.162219,"addr_street":"127 Arthur Street","price":10183000.0,"property_type":"house","year":2011.0,"bedrooms":3.0,"bathrooms":2.0,"parking_space":2.0},{"property_id":94504.0,"lat":-37.917,"lng":145.024165,"addr_street":"1\/168 Centre Road","price":9786000.0,"property_type":"house","year":2014.0,"bedrooms":3.0,"bathrooms":1.0,"parking_space":2.0},{"property_id":24455.0,"lat":-37.706427,"lng":144.966737,"addr_street":"5 William Street","price":7875000.0,"property_type":"house","year":2015.0,"bedrooms":3.0,"bathrooms":1.0,"parking_space":1.0},{"property_id":64838.0,"lat":-37.77245331,"lng":145.303421,"addr_street":"71 Bellara Drive","price":5610000.0,"property_type":"house","year":2009.0,"bedrooms":3.0,"bathrooms":1.0,"parking_space":1.0},{"property_id":73243.0,"lat":-37.854678,"lng":145.289433,"addr_street":"20 Olive Grove","price":11808000.0,"property_type":"house","year":2014.0,"bedrooms":3.0,"bathrooms":1.0,"parking_space":1.0},{"property_id":43212.0,"lat":-37.71665192,"lng":145.0722809,"addr_street":"55 Dunvegan Crescent","price":5985000.0,"property_type":"house","year":2008.0,"bedrooms":3.0,"bathrooms":1.0,"parking_space":0.0},{"property_id":64422.0,"lat":-37.807014,"lng":145.272394,"addr_street":"4 Field Street","price":10480000.0,"property_type":"house","year":2015.0,"bedrooms":3.0,"bathrooms":2.0,"parking_space":2.0},{"property_id":13740.0,"lat":-37.7440355,"lng":144.9076991,"addr_street":"113\/55 Collins Street","price":3807000.0,"property_type":"house","year":2012.0,"bedrooms":1.0,"bathrooms":1.0,"parking_space":0.0},{"property_id":21407.0,"lat":-37.764358,"lng":144.95977,"addr_street":"6 Lux Way","price":15555000.0,"property_type":"house","year":2016.0,"bedrooms":1.0,"bathrooms":1.0,"parking_space":3.0},{"property_id":30543.0,"lat":-37.758664,"lng":145.018158,"addr_street":"1\/275 Rossmoyne Street","price":4810000.0,"property_type":"house","year":2013.0,"bedrooms":3.0,"bathrooms":1.0,"parking_space":2.0},{"property_id":28437.0,"lat":-37.798666,"lng":144.986854,"addr_street":"10 Budd Street","price":6300000.0,"property_type":"house","year":2010.0,"bedrooms":2.0,"bathrooms":1.0,"parking_space":0.0},{"property_id":93583.0,"lat":-37.994966,"lng":145.07561,"addr_street":"63 The Corso","price":14688000.0,"property_type":"house","year":2014.0,"bedrooms":4.0,"bathrooms":2.0,"parking_space":1.0},{"property_id":75115.0,"lat":-37.90429306,"lng":145.0697784,"addr_street":"39 WALLACE AVE","price":13875000.0,"property_type":"house","year":2009.0,"bedrooms":5.0,"bathrooms":3.0,"parking_space":2.0},{"property_id":77699.0,"lat":-37.928175,"lng":145.199343,"addr_street":"20 Miners Court","price":10540000.0,"property_type":"house","year":2014.0,"bedrooms":4.0,"bathrooms":3.0,"parking_space":2.0},{"property_id":27305.0,"lat":-37.577302,"lng":144.928373,"addr_street":"58 Ardsley Circuit","price":7038000.0,"property_type":"house","year":2016.0,"bedrooms":3.0,"bathrooms":2.0,"parking_space":1.0},{"property_id":52636.0,"lat":-37.818553,"lng":144.990271,"addr_street":"2 Sherwood Street","price":9912000.0,"property_type":"house","year":2012.0,"bedrooms":1.0,"bathrooms":1.0,"parking_space":1.0},{"property_id":82758.0,"lat":-37.907147,"lng":145.250277,"addr_street":"38 Valleyview Drive","price":8295000.0,"property_type":"house","year":2011.0,"bedrooms":4.0,"bathrooms":2.0,"parking_space":2.0},{"property_id":55518.0,"lat":-37.843996,"lng":145.080839,"addr_street":"31 Kalang Road","price":13310000.0,"property_type":"house","year":2013.0,"bedrooms":2.0,"bathrooms":1.0,"parking_space":1.0},{"property_id":55400.0,"lat":-37.838576,"lng":145.058619,"addr_street":"27 Currajong Avenue","price":25320000.0,"property_type":"house","year":2010.0,"bedrooms":4.0,"bathrooms":2.0,"parking_space":2.0},{"property_id":81132.0,"lat":-37.984446,"lng":145.206254,"addr_street":"3\/1 Napier Street","price":4365000.0,"property_type":"house","year":2016.0,"bedrooms":3.0,"bathrooms":3.0,"parking_space":2.0},{"property_id":1916.0,"lat":-37.78663254,"lng":144.8816223,"addr_street":"19 Inkerman Street","price":4428000.0,"property_type":"house","year":2009.0,"bedrooms":3.0,"bathrooms":2.0,"parking_space":1.0},{"property_id":83466.0,"lat":-37.850919,"lng":145.002958,"addr_street":"126 Williams Road","price":11340000.0,"property_type":"house","year":2010.0,"bedrooms":3.0,"bathrooms":2.0,"parking_space":0.0},{"property_id":40471.0,"lat":-37.696138,"lng":145.077375,"addr_street":"37 Boston Road","price":8160000.0,"property_type":"house","year":2016.0,"bedrooms":4.0,"bathrooms":2.0,"parking_space":2.0},{"property_id":1065.0,"lat":-37.802925,"lng":144.89175,"addr_street":"45 Windsor Street","price":5848000.0,"property_type":"house","year":2016.0,"bedrooms":3.0,"bathrooms":1.0,"parking_space":3.0},{"property_id":27531.0,"lat":-37.602013,"lng":144.927478,"addr_street":"7 Balcombe Court","price":4620000.0,"property_type":"house","year":2010.0,"bedrooms":3.0,"bathrooms":1.0,"parking_space":3.0},{"property_id":80409.0,"lat":-37.991301,"lng":145.164002,"addr_street":"6 Sherie Court","price":3360000.0,"property_type":"house","year":2011.0,"bedrooms":3.0,"bathrooms":1.0,"parking_space":2.0},{"property_id":22872.0,"lat":-37.742381,"lng":144.973476,"addr_street":"49 Bell Street","price":5160000.0,"property_type":"house","year":2014.0,"bedrooms":3.0,"bathrooms":1.0,"parking_space":1.0},{"property_id":50475.0,"lat":-37.754818,"lng":145.132333,"addr_street":"113 Atkinson Street","price":9330000.0,"property_type":"house","year":2015.0,"bedrooms":3.0,"bathrooms":2.0,"parking_space":1.0},{"property_id":53384.0,"lat":-37.81327057,"lng":144.993103,"addr_street":"48 York Street","price":11360000.0,"property_type":"house","year":2008.0,"bedrooms":3.0,"bathrooms":2.0,"parking_space":0.0},{"property_id":80455.0,"lat":-37.991551,"lng":145.178598,"addr_street":"7 Locharn Crescent","price":7225000.0,"property_type":"house","year":2010.0,"bedrooms":3.0,"bathrooms":1.0,"parking_space":1.0},{"property_id":57564.0,"lat":-37.823516,"lng":145.164207,"addr_street":"119 Central Road","price":15120000.0,"property_type":"house","year":2016.0,"bedrooms":3.0,"bathrooms":1.0,"parking_space":0.0},{"property_id":85622.0,"lat":-37.877634,"lng":144.999524,"addr_street":"4 Willow Street","price":18400000.0,"property_type":"house","year":2013.0,"bedrooms":3.0,"bathrooms":1.0,"parking_space":2.0},{"property_id":2020.0,"lat":-37.7852,"lng":144.881636,"addr_street":"22 Delacey Street","price":8250000.0,"property_type":"house","year":2012.0,"bedrooms":3.0,"bathrooms":1.0,"parking_space":3.0},{"property_id":25560.0,"lat":-37.578175,"lng":144.938394,"addr_street":"16 Discovery Close","price":5330000.0,"property_type":"house","year":2016.0,"bedrooms":3.0,"bathrooms":2.0,"parking_space":2.0},{"property_id":83810.0,"lat":-37.858944,"lng":145.004023,"addr_street":"283 Dandenong Road","price":7335000.0,"property_type":"house","year":2011.0,"bedrooms":3.0,"bathrooms":1.0,"parking_space":1.0},{"property_id":84963.0,"lat":-37.880981,"lng":144.989628,"addr_street":"43 Scott Street","price":16200000.0,"property_type":"house","year":2010.0,"bedrooms":4.0,"bathrooms":1.0,"parking_space":1.0},{"property_id":4851.0,"lat":-37.868614,"lng":144.84143,"addr_street":"11A Queen Street","price":11500000.0,"property_type":"house","year":2014.0,"bedrooms":3.0,"bathrooms":2.0,"parking_space":2.0},{"property_id":41899.0,"lat":-37.746571,"lng":145.064705,"addr_street":"23 Prospect Road","price":7044000.0,"property_type":"house","year":2012.0,"bedrooms":3.0,"bathrooms":2.0,"parking_space":2.0},{"property_id":49967.0,"lat":-37.775771,"lng":145.092202,"addr_street":"17 The Crest","price":2960000.0,"property_type":"house","year":2010.0,"bedrooms":3.0,"bathrooms":1.0,"parking_space":1.0},{"property_id":78461.0,"lat":-37.91711,"lng":145.1642,"addr_street":"93 Monash Drive","price":12165000.0,"property_type":"house","year":2015.0,"bedrooms":4.0,"bathrooms":2.0,"parking_space":2.0},{"property_id":68257.0,"lat":-37.850403,"lng":145.015564,"addr_street":"10 Clendon Road","price":25500000.0,"property_type":"house","year":2009.0,"bedrooms":3.0,"bathrooms":2.0,"parking_space":2.0},{"property_id":9619.0,"lat":-37.854019,"lng":144.714209,"addr_street":"67 Bridgewater Way","price":4950000.0,"property_type":"house","year":2011.0,"bedrooms":4.0,"bathrooms":2.0,"parking_space":2.0},{"property_id":71933.0,"lat":-37.836315,"lng":145.284574,"addr_street":"1\/22 STREETON ROAD","price":6450000.0,"property_type":"house","year":2015.0,"bedrooms":3.0,"bathrooms":1.0,"parking_space":2.0},{"property_id":60736.0,"lat":-37.840183,"lng":145.19996,"addr_street":"4 Morack Road","price":12155000.0,"property_type":"house","year":2016.0,"bedrooms":4.0,"bathrooms":2.0,"parking_space":2.0},{"property_id":80240.0,"lat":-38.000069,"lng":145.14728,"addr_street":"4 Scotch Avenue","price":11200000.0,"property_type":"house","year":2015.0,"bedrooms":3.0,"bathrooms":3.0,"parking_space":2.0},{"property_id":58651.0,"lat":-37.80829239,"lng":145.1691589,"addr_street":"19 Susanne Avenue","price":9280000.0,"property_type":"house","year":2009.0,"bedrooms":4.0,"bathrooms":1.0,"parking_space":2.0},{"property_id":82935.0,"lat":-37.908039,"lng":145.27042,"addr_street":"93 Sovereign Manors Crescent","price":5093000.0,"property_type":"house","year":2014.0,"bedrooms":3.0,"bathrooms":2.0,"parking_space":1.0},{"property_id":84502.0,"lat":-37.869161,"lng":144.99179,"addr_street":"26 Marlborough Street","price":5868000.0,"property_type":"house","year":2012.0,"bedrooms":2.0,"bathrooms":1.0,"parking_space":1.0},{"property_id":64582.0,"lat":-37.791643,"lng":145.283205,"addr_street":"5 Joffre Street","price":8710000.0,"property_type":"house","year":2012.0,"bedrooms":5.0,"bathrooms":3.0,"parking_space":2.0},{"property_id":81758.0,"lat":-37.984308,"lng":145.234928,"addr_street":"13 Peach Court","price":3300000.0,"property_type":"house","year":2012.0,"bedrooms":3.0,"bathrooms":1.0,"parking_space":1.0},{"property_id":60644.0,"lat":-37.839684,"lng":145.193665,"addr_street":"27B Nurlendi Road","price":5865000.0,"property_type":"house","year":2016.0,"bedrooms":3.0,"bathrooms":2.0,"parking_space":2.0},{"property_id":88422.0,"lat":-37.953781,"lng":145.051396,"addr_street":"11 Matthieson Street","price":5744000.0,"property_type":"house","year":2013.0,"bedrooms":3.0,"bathrooms":1.0,"parking_space":2.0},{"property_id":31839.0,"lat":-37.74233627,"lng":145.0105438,"addr_street":"13 Patterson Street","price":5005000.0,"property_type":"house","year":2009.0,"bedrooms":2.0,"bathrooms":1.0,"parking_space":2.0},{"property_id":22640.0,"lat":-37.753771,"lng":144.952035,"addr_street":"347 Moreland Road","price":9600000.0,"property_type":"house","year":2015.0,"bedrooms":4.0,"bathrooms":1.0,"parking_space":1.0},{"property_id":34010.0,"lat":-37.722355,"lng":145.01915,"addr_street":"17 Shand Road","price":6430000.0,"property_type":"house","year":2015.0,"bedrooms":3.0,"bathrooms":1.0,"parking_space":1.0},{"property_id":57694.0,"lat":-37.824787,"lng":145.145821,"addr_street":"16A Linum Street","price":21000000.0,"property_type":"house","year":2016.0,"bedrooms":3.0,"bathrooms":1.0,"parking_space":2.0},{"property_id":42182.0,"lat":-37.73688,"lng":145.072358,"addr_street":"39 St Andrews Avenue","price":9648000.0,"property_type":"house","year":2014.0,"bedrooms":4.0,"bathrooms":1.0,"parking_space":1.0},{"property_id":20106.0,"lat":-37.794692,"lng":144.975087,"addr_street":"225 Nicholson Street","price":13370000.0,"property_type":"house","year":2015.0,"bedrooms":2.0,"bathrooms":1.0,"parking_space":0.0},{"property_id":88160.0,"lat":-37.939377,"lng":145.044466,"addr_street":"24 Ashlar road","price":11200000.0,"property_type":"house","year":2011.0,"bedrooms":3.0,"bathrooms":2.0,"parking_space":1.0},{"property_id":91689.0,"lat":-37.99021912,"lng":145.0430908,"addr_street":"478 Beach Road","price":22880000.0,"property_type":"house","year":2008.0,"bedrooms":4.0,"bathrooms":3.0,"parking_space":2.0},{"property_id":67884.0,"lat":-37.846351,"lng":145.008826,"addr_street":"16 Fairbairn Road","price":3354000.0,"property_type":"house","year":2014.0,"bedrooms":2.0,"bathrooms":1.0,"parking_space":1.0},{"property_id":46400.0,"lat":-37.693631,"lng":145.143665,"addr_street":"10 Glen Gully Road","price":8400000.0,"property_type":"house","year":2014.0,"bedrooms":3.0,"bathrooms":2.0,"parking_space":2.0},{"property_id":43345.0,"lat":-37.71907425,"lng":145.0588684,"addr_street":"9 heritage court","price":11322000.0,"property_type":"house","year":2008.0,"bedrooms":4.0,"bathrooms":2.0,"parking_space":2.0},{"property_id":88577.0,"lat":-37.954758,"lng":145.04468,"addr_street":"19 Princess Avenue","price":7904000.0,"property_type":"house","year":2011.0,"bedrooms":3.0,"bathrooms":1.0,"parking_space":2.0},{"property_id":51801.0,"lat":-37.802258,"lng":145.18944,"addr_street":"15 Langford Crescent","price":10650000.0,"property_type":"house","year":2014.0,"bedrooms":3.0,"bathrooms":1.0,"parking_space":2.0},{"property_id":14840.0,"lat":-37.741488,"lng":144.895497,"addr_street":"86 Bradshaw Street","price":17680000.0,"property_type":"house","year":2011.0,"bedrooms":3.0,"bathrooms":1.0,"parking_space":1.0},{"property_id":85966.0,"lat":-37.897294,"lng":145.000963,"addr_street":"104 Martin Street","price":26240000.0,"property_type":"house","year":2015.0,"bedrooms":3.0,"bathrooms":1.0,"parking_space":1.0},{"property_id":69612.0,"lat":-37.871565,"lng":145.107449,"addr_street":"16 Station Avenue","price":7560000.0,"property_type":"house","year":2011.0,"bedrooms":2.0,"bathrooms":1.0,"parking_space":0.0},{"property_id":74117.0,"lat":-37.912905,"lng":145.275767,"addr_street":"13 Crusoe Drive","price":4329000.0,"property_type":"house","year":2012.0,"bedrooms":3.0,"bathrooms":2.0,"parking_space":2.0},{"property_id":5904.0,"lat":-37.781433,"lng":144.85816,"addr_street":"9 Cremorne  Street","price":5782000.0,"property_type":"house","year":2012.0,"bedrooms":2.0,"bathrooms":1.0,"parking_space":0.0},{"property_id":19112.0,"lat":-37.68914,"lng":144.935114,"addr_street":"64 Ophir Street","price":5640000.0,"property_type":"house","year":2010.0,"bedrooms":3.0,"bathrooms":1.0,"parking_space":0.0},{"property_id":63108.0,"lat":-37.826971,"lng":145.228698,"addr_street":"8 Lee Court","price":6974000.0,"property_type":"house","year":2014.0,"bedrooms":3.0,"bathrooms":1.0,"parking_space":3.0},{"property_id":95736.0,"lat":-37.910258,"lng":145.042011,"addr_street":"4 Penang Street","price":14280000.0,"property_type":"house","year":2013.0,"bedrooms":3.0,"bathrooms":1.0,"parking_space":2.0},{"property_id":56893.0,"lat":-37.845882,"lng":145.124759,"addr_street":"8 Clanbrae Avenue","price":4192000.0,"property_type":"house","year":2013.0,"bedrooms":3.0,"bathrooms":1.0,"parking_space":0.0},{"property_id":44585.0,"lat":-37.69566,"lng":145.120074,"addr_street":"20 Crest Street","price":15600000.0,"property_type":"house","year":2014.0,"bedrooms":4.0,"bathrooms":2.0,"parking_space":2.0},{"property_id":43340.0,"lat":-37.720401,"lng":145.079998,"addr_street":"9 Cooley Avenue","price":10050000.0,"property_type":"house","year":2010.0,"bedrooms":4.0,"bathrooms":1.0,"parking_space":2.0},{"property_id":29556.0,"lat":-37.780615,"lng":145.003454,"addr_street":"17 Jessie Street","price":8800000.0,"property_type":"house","year":2013.0,"bedrooms":4.0,"bathrooms":2.0,"parking_space":3.0},{"property_id":61971.0,"lat":-37.8208,"lng":145.221944,"addr_street":"41 Barkly Street","price":7930000.0,"property_type":"house","year":2014.0,"bedrooms":2.0,"bathrooms":1.0,"parking_space":1.0},{"property_id":35502.0,"lat":-37.7129631,"lng":145.0166779,"addr_street":"70 Strathmerton Street","price":2400000.0,"property_type":"house","year":2007.0,"bedrooms":2.0,"bathrooms":1.0,"parking_space":1.0},